{
"type": "FeatureCollection",
"crs": { "type": "name", "properties": { "name": "urn:ogc:def:crs:EPSG::900913" } },
"features": [
{ "type": "Feature", "properties": { "备注": null, "编号": 1.0, "站码": 31003603.0, "站名": "上乐", "流域名": "海河", "水系名": "漳卫南运河", "河流名": "卫河", "站别": "PP", "行政区": 410781.0, "设站年": 0.0, "集水面": null, "站址": "卫辉市上乐村镇上乐村", "经度": 114.2, "维度": 35.47, "测站等": null }, "geometry": { "type": "Point", "coordinates": [ 114.2, 35.47 ] } },
{ "type": "Feature", "properties": { "备注": null, "编号": 1.0, "站码": 31003604.0, "站名": "后河", "流域名": "海河", "水系名": "漳卫南运河", "河流名": "长虹渠", "站别": "PP", "行政区": 410781.0, "设站年": 0.0, "集水面": null, "站址": "卫辉市后河镇", "经度": 114.5492, "维度": 35.2553, "测站等": null }, "geometry": { "type": "Point", "coordinates": [ 114.5492, 35.2553 ] } },
{ "type": "Feature", "properties": { "备注": null, "编号": 2.0, "站码": 31003900.0, "站名": "五陵", "流域名": "海河流域", "水系名": "南运河", "河流名": "卫河", "站别": null, "行政区": 0.0, "设站年": 1983.0, "集水面": null, "站址": "河南省汤阴县五陵镇五陵村", "经度": 114.35, "维度": 35.51, "测站等": null }, "geometry": { "type": "Point", "coordinates": [ 114.35, 35.51 ] } },
{ "type": "Feature", "properties": { "备注": null, "编号": 1.0, "站码": 31004050.0, "站名": "内黄", "流域名": "海河", "水系名": "漳卫南运河", "河流名": "硝河", "站别": "PP", "行政区": 410527.0, "设站年": 195401.0, "集水面": null, "站址": "安阳市内黄县城关镇", "经度": 114.9, "维度": 35.95, "测站等": null }, "geometry": { "type": "Point", "coordinates": [ 114.9, 35.95 ] } },
{ "type": "Feature", "properties": { "备注": null, "编号": 1.0, "站码": 31004630.0, "站名": "影寺", "流域名": "海河", "水系名": "漳卫南运河", "河流名": "大沙河", "站别": "PP", "行政区": 410821.0, "设站年": 200807.0, "集水面": null, "站址": "焦作市修武县西村乡影寺村", "经度": 113.175555, "维度": 35.41, "测站等": null }, "geometry": { "type": "Point", "coordinates": [ 113.175555, 35.41 ] } },
{ "type": "Feature", "properties": { "备注": null, "编号": 1.0, "站码": 31005400.0, "站名": "八里营", "流域名": "海河", "水系名": "漳卫南运河", "河流名": "卫河", "站别": "PP", "行政区": 410701.0, "设站年": 0.0, "集水面": null, "站址": "新乡市卫滨区平原乡八里营村八里营站", "经度": 113.83, "维度": 35.28, "测站等": null }, "geometry": { "type": "Point", "coordinates": [ 113.83, 35.28 ] } },
{ "type": "Feature", "properties": { "备注": null, "编号": 1.0, "站码": 31005401.0, "站名": "南翟坡", "流域名": "海河", "水系名": "漳卫南运河", "河流名": "卫河", "站别": "PP", "行政区": 410721.0, "设站年": 0.0, "集水面": null, "站址": "新乡市新乡县翟坡镇南翟坡村", "经度": 113.7922, "维度": 35.2374, "测站等": null }, "geometry": { "type": "Point", "coordinates": [ 113.7922, 35.2374 ] } },
{ "type": "Feature", "properties": { "备注": null, "编号": 1.0, "站码": 31005461.0, "站名": "新乡水利局", "流域名": "海河", "水系名": "漳卫南运河", "河流名": "卫河", "站别": "PP", "行政区": 410701.0, "设站年": 0.0, "集水面": null, "站址": "新乡市水利局办公楼3楼", "经度": 113.855, "维度": 35.3158, "测站等": null }, "geometry": { "type": "Point", "coordinates": [ 113.855, 35.3158 ] } },
{ "type": "Feature", "properties": { "备注": null, "编号": 1.0, "站码": 31005462.0, "站名": "新乡水文局", "流域名": "海河", "水系名": "漳卫南运河", "河流名": "卫河", "站别": "PP", "行政区": 410701.0, "设站年": 0.0, "集水面": null, "站址": "新乡市水文局办公楼2楼", "经度": 113.9006, "维度": 35.3223, "测站等": null }, "geometry": { "type": "Point", "coordinates": [ 113.9006, 35.3223 ] } },
{ "type": "Feature", "properties": { "备注": null, "编号": 1.0, "站码": 31005463.0, "站名": "孟营", "流域名": "海河", "水系名": "漳卫南运河", "河流名": "人民胜利渠", "站别": "PP", "行政区": 410701.0, "设站年": 0.0, "集水面": null, "站址": "新乡市孟营新村居民房2楼", "经度": 113.8483, "维度": 35.2825, "测站等": null }, "geometry": { "type": "Point", "coordinates": [ 113.8483, 35.2825 ] } },
{ "type": "Feature", "properties": { "备注": null, "编号": 1.0, "站码": 31005464.0, "站名": "豫北局", "流域名": "海河", "水系名": "漳卫南运河", "河流名": "卫河", "站别": "PP", "行政区": 410701.0, "设站年": 0.0, "集水面": null, "站址": "新乡市豫北局办公楼3楼", "经度": 113.8389, "维度": 35.3222, "测站等": null }, "geometry": { "type": "Point", "coordinates": [ 113.8389, 35.3222 ] } },
{ "type": "Feature", "properties": { "备注": null, "编号": 1.0, "站码": 31005465.0, "站名": "市政府", "流域名": "海河", "水系名": "漳卫南运河", "河流名": "卫河", "站别": "PP", "行政区": 410701.0, "设站年": 0.0, "集水面": null, "站址": "新乡市市政府", "经度": 113.9264, "维度": 35.3122, "测站等": null }, "geometry": { "type": "Point", "coordinates": [ 113.9264, 35.3122 ] } },
{ "type": "Feature", "properties": { "备注": null, "编号": 1.0, "站码": 31005466.0, "站名": "凤泉区政府", "流域名": "海河", "水系名": "漳卫南运河", "河流名": "共产主义渠", "站别": "PP", "行政区": 410701.0, "设站年": 0.0, "集水面": null, "站址": "新乡市凤泉区政府", "经度": 113.9361, "维度": 35.4081, "测站等": null }, "geometry": { "type": "Point", "coordinates": [ 113.9361, 35.4081 ] } },
{ "type": "Feature", "properties": { "备注": null, "编号": 1.0, "站码": 31005467.0, "站名": "东鲁堡", "流域名": "海河", "水系名": "漳卫南运河", "河流名": "卫河", "站别": "PP", "行政区": 410701.0, "设站年": 0.0, "集水面": null, "站址": "新乡市市辖区耿黄乡东鲁堡", "经度": 113.871, "维度": 35.37, "测站等": null }, "geometry": { "type": "Point", "coordinates": [ 113.871, 35.37 ] } },
{ "type": "Feature", "properties": { "备注": null, "编号": 1.0, "站码": 31005468.0, "站名": "分将池", "流域名": "海河", "水系名": "漳卫南运河", "河流名": "卫河", "站别": "PP", "行政区": 410701.0, "设站年": 0.0, "集水面": null, "站址": "新乡市市辖区潞王坟乡分将池", "经度": 113.919, "维度": 35.439, "测站等": null }, "geometry": { "type": "Point", "coordinates": [ 113.919, 35.439 ] } },
{ "type": "Feature", "properties": { "备注": null, "编号": 1.0, "站码": 31005469.0, "站名": "前郭柳", "流域名": "海河", "水系名": "漳卫南运河", "河流名": "卫河", "站别": "PP", "行政区": 410701.0, "设站年": 0.0, "集水面": null, "站址": "新乡市市辖区潞王坟乡前郭柳", "经度": 113.876, "维度": 35.425, "测站等": null }, "geometry": { "type": "Point", "coordinates": [ 113.876, 35.425 ] } },
{ "type": "Feature", "properties": { "备注": null, "编号": 1.0, "站码": 31005651.0, "站名": "石大沟", "流域名": "海河", "水系名": "漳卫南运河", "河流名": "淇河", "站别": "PP", "行政区": 410581.0, "设站年": 0.0, "集水面": null, "站址": "安阳市林州市东姚镇石大沟村", "经度": 113.9974, "维度": 35.8701, "测站等": null }, "geometry": { "type": "Point", "coordinates": [ 113.9974, 35.8701 ] } },
{ "type": "Feature", "properties": { "备注": null, "编号": 1.0, "站码": 31005660.0, "站名": "盘石头水库（坝下）", "流域名": "海河", "水系名": "漳卫南运河", "河流名": "淇河", "站别": "PP", "行政区": 410611.0, "设站年": 0.0, "集水面": null, "站址": "淇滨区大河涧乡弓家庄村", "经度": 114.07, "维度": 35.85, "测站等": null }, "geometry": { "type": "Point", "coordinates": [ 114.07, 35.85 ] } },
{ "type": "Feature", "properties": { "备注": null, "编号": 1.0, "站码": 31006501.0, "站名": "鹤壁水利局", "流域名": "海河", "水系名": "漳卫南运河", "河流名": "淇河", "站别": "PP", "行政区": 410601.0, "设站年": 0.0, "集水面": null, "站址": "鹤壁市水利局办公楼7楼", "经度": 114.28281, "维度": 35.74717, "测站等": null }, "geometry": { "type": "Point", "coordinates": [ 114.28281, 35.74717 ] } },
{ "type": "Feature", "properties": { "备注": null, "编号": 1.0, "站码": 31006502.0, "站名": "工农渠管理处", "流域名": "海河", "水系名": "漳卫南运河", "河流名": "汤河", "站别": "PP", "行政区": 410621.0, "设站年": 0.0, "集水面": null, "站址": "鹤壁市工农渠管理处家属院家属楼3楼", "经度": 114.17557, "维度": 35.89337, "测站等": null }, "geometry": { "type": "Point", "coordinates": [ 114.17557, 35.89337 ] } },
{ "type": "Feature", "properties": { "备注": null, "编号": 1.0, "站码": 31006503.0, "站名": "潘荒提水站", "流域名": "海河", "水系名": "漳卫南运河", "河流名": "汤河", "站别": "PP", "行政区": 410601.0, "设站年": 0.0, "集水面": null, "站址": "鹤壁市淇滨区大河涧乡潘荒村", "经度": 114.13718, "维度": 35.88701, "测站等": null }, "geometry": { "type": "Point", "coordinates": [ 114.13718, 35.88701 ] } },
{ "type": "Feature", "properties": { "备注": null, "编号": 1.0, "站码": 31006504.0, "站名": "淇滨区政府", "流域名": "海河", "水系名": "漳卫南运河", "河流名": "淇河", "站别": "PP", "行政区": 410611.0, "设站年": 201204.0, "集水面": null, "站址": "鹤壁市淇滨区", "经度": 114.24493, "维度": 35.76505, "测站等": null }, "geometry": { "type": "Point", "coordinates": [ 114.24493, 35.76505 ] } },
{ "type": "Feature", "properties": { "备注": null, "编号": 1.0, "站码": 31006505.0, "站名": "淇滨区南部综合功能服务区", "流域名": "海河", "水系名": "漳卫南运河", "河流名": "淇河", "站别": "PP", "行政区": 410611.0, "设站年": 201204.0, "集水面": null, "站址": "鹤壁市淇滨区鹤煤大道西段", "经度": 114.27278, "维度": 35.73517, "测站等": null }, "geometry": { "type": "Point", "coordinates": [ 114.27278, 35.73517 ] } },
{ "type": "Feature", "properties": { "备注": null, "编号": 1.0, "站码": 31006506.0, "站名": "淇滨区职教园区", "流域名": "海河", "水系名": "漳卫南运河", "河流名": "刘洼沟", "站别": "PP", "行政区": 410611.0, "设站年": 201204.0, "集水面": null, "站址": "鹤壁市淇滨区长江路姜庄村", "经度": 114.30077, "维度": 35.71782, "测站等": null }, "geometry": { "type": "Point", "coordinates": [ 114.30077, 35.71782 ] } },
{ "type": "Feature", "properties": { "备注": null, "编号": 1.0, "站码": 31006507.0, "站名": "谭峪", "流域名": "海河", "水系名": "漳卫南运河", "河流名": "淇河", "站别": "PP", "行政区": 410611.0, "设站年": 0.0, "集水面": null, "站址": "鹤壁市淇滨区大河涧乡谭峪村", "经度": 114.07187, "维度": 35.86049, "测站等": null }, "geometry": { "type": "Point", "coordinates": [ 114.07187, 35.86049 ] } },
{ "type": "Feature", "properties": { "备注": null, "编号": 1.0, "站码": 31006508.0, "站名": "马横岭", "流域名": "海河", "水系名": "漳卫南运河", "河流名": "淇河", "站别": "PP", "行政区": 410611.0, "设站年": 0.0, "集水面": null, "站址": "鹤壁市淇滨区大河涧乡马横岭村", "经度": 114.09864, "维度": 35.86855, "测站等": null }, "geometry": { "type": "Point", "coordinates": [ 114.09864, 35.86855 ] } },
{ "type": "Feature", "properties": { "备注": null, "编号": 1.0, "站码": 31006509.0, "站名": "野猪泉", "流域名": "海河", "水系名": "漳卫南运河", "河流名": "淇河", "站别": "PP", "行政区": 410611.0, "设站年": 0.0, "集水面": null, "站址": "鹤壁市淇滨区大河涧乡野猪泉村", "经度": 114.0394, "维度": 35.8006, "测站等": null }, "geometry": { "type": "Point", "coordinates": [ 114.0394, 35.8006 ] } },
{ "type": "Feature", "properties": { "备注": null, "编号": 1.0, "站码": 31006511.0, "站名": "肖横岭", "流域名": "海河", "水系名": "漳卫南运河", "河流名": "淇河", "站别": "PP", "行政区": 410611.0, "设站年": 201204.0, "集水面": null, "站址": "鹤壁市淇滨区大河涧乡肖横岭村", "经度": 114.11471, "维度": 35.86464, "测站等": null }, "geometry": { "type": "Point", "coordinates": [ 114.11471, 35.86464 ] } },
{ "type": "Feature", "properties": { "备注": null, "编号": 1.0, "站码": 31006512.0, "站名": "许沟", "流域名": "海河", "水系名": "漳卫南运河", "河流名": "淇河", "站别": "PP", "行政区": 410611.0, "设站年": 0.0, "集水面": null, "站址": "鹤壁市淇滨区金山办事处许沟村", "经度": 114.114709, "维度": 35.86464, "测站等": null }, "geometry": { "type": "Point", "coordinates": [ 114.114709, 35.86464 ] } },
{ "type": "Feature", "properties": { "备注": null, "编号": 1.0, "站码": 31006901.0, "站名": "安阳水利局", "流域名": "海河", "水系名": "漳卫南运河", "河流名": "安阳河", "站别": "PP", "行政区": 410501.0, "设站年": 0.0, "集水面": null, "站址": "安阳水利局临街四层办公楼楼顶", "经度": 114.32716, "维度": 36.11179, "测站等": null }, "geometry": { "type": "Point", "coordinates": [ 114.32716, 36.11179 ] } },
{ "type": "Feature", "properties": { "备注": null, "编号": 1.0, "站码": 31006902.0, "站名": "安阳交通局", "流域名": "海河", "水系名": "漳卫南运河", "河流名": "洪水河", "站别": "PP", "行政区": 410501.0, "设站年": 0.0, "集水面": null, "站址": "安阳交通局楼顶", "经度": 114.34349, "维度": 36.07093, "测站等": null }, "geometry": { "type": "Point", "coordinates": [ 114.34349, 36.07093 ] } },
{ "type": "Feature", "properties": { "备注": null, "编号": 1.0, "站码": 31006903.0, "站名": "西八里庄", "流域名": "海河", "水系名": "漳卫南运河", "河流名": "茶店坡沟", "站别": "PP", "行政区": 410506.0, "设站年": 201204.0, "集水面": null, "站址": "安阳市殷都区东风乡西八里庄", "经度": 114.28934, "维度": 36.09368, "测站等": null }, "geometry": { "type": "Point", "coordinates": [ 114.28934, 36.09368 ] } },
{ "type": "Feature", "properties": { "备注": null, "编号": 1.0, "站码": 31006904.0, "站名": "三家庄", "流域名": "海河", "水系名": "漳卫南运河", "河流名": "茶店坡沟", "站别": "PP", "行政区": 410506.0, "设站年": 201204.0, "集水面": null, "站址": "安阳市龙安区东风乡三家庄", "经度": 114.30816, "维度": 36.10261, "测站等": null }, "geometry": { "type": "Point", "coordinates": [ 114.30816, 36.10261 ] } },
{ "type": "Feature", "properties": { "备注": null, "编号": 1.0, "站码": 31006905.0, "站名": "花园庄", "流域名": "海河", "水系名": "漳卫南运河", "河流名": "安阳河", "站别": "PP", "行政区": 410501.0, "设站年": 201204.0, "集水面": null, "站址": "安阳市殷都区西郊乡花园庄", "经度": 114.3155, "维度": 36.1295, "测站等": null }, "geometry": { "type": "Point", "coordinates": [ 114.3155, 36.1295 ] } },
{ "type": "Feature", "properties": { "备注": null, "编号": 1.0, "站码": 31006906.0, "站名": "丰安", "流域名": "海河", "水系名": "漳卫南运河", "河流名": "安阳河", "站别": "PP", "行政区": 410501.0, "设站年": 201204.0, "集水面": null, "站址": "安阳市殷都区西郊乡丰安", "经度": 114.27473, "维度": 36.31517, "测站等": null }, "geometry": { "type": "Point", "coordinates": [ 114.27473, 36.31517 ] } },
{ "type": "Feature", "properties": { "备注": null, "编号": 1.0, "站码": 31006907.0, "站名": "龙泉水库", "流域名": "海河", "水系名": "漳卫南运河", "河流名": "金线河", "站别": "PP", "行政区": 410506.0, "设站年": 201204.0, "集水面": null, "站址": "安阳市龙安区龙泉镇龙泉", "经度": 114.17724, "维度": 36.06295, "测站等": null }, "geometry": { "type": "Point", "coordinates": [ 114.17724, 36.06295 ] } },
{ "type": "Feature", "properties": { "备注": null, "编号": 1.0, "站码": 31006908.0, "站名": "张家岗", "流域名": "海河", "水系名": "漳卫南运河", "河流名": "洪水河", "站别": "PP", "行政区": 410506.0, "设站年": 201204.0, "集水面": null, "站址": "安阳市龙安区龙泉镇张家岗", "经度": 114.24261, "维度": 36.06085, "测站等": null }, "geometry": { "type": "Point", "coordinates": [ 114.24261, 36.06085 ] } },
{ "type": "Feature", "properties": { "备注": null, "编号": 1.0, "站码": 31006909.0, "站名": "北曲沟", "流域名": "海河", "水系名": "漳卫南运河", "河流名": "漳南总干渠", "站别": "PP", "行政区": 410522.0, "设站年": 0.0, "集水面": null, "站址": "安阳市安阳县曲沟镇北曲沟村", "经度": 114.211, "维度": 36.1197, "测站等": null }, "geometry": { "type": "Point", "coordinates": [ 114.211, 36.1197 ] } },
{ "type": "Feature", "properties": { "备注": null, "编号": 1.0, "站码": 31020050.0, "站名": "南岭", "流域名": "海河", "水系名": "漳卫南运河", "河流名": "峪河", "站别": "PP", "行政区": 140500.0, "设站年": 0.0, "集水面": null, "站址": "晋城市柳树口乡南岭村", "经度": 113.166667, "维度": 35.483333, "测站等": null }, "geometry": { "type": "Point", "coordinates": [ 113.166667, 35.483333 ] } },
{ "type": "Feature", "properties": { "备注": null, "编号": 1.0, "站码": 31020100.0, "站名": "黄围", "流域名": "海河", "水系名": "漳卫南运河", "河流名": "峪河", "站别": "PP", "行政区": 140500.0, "设站年": 0.0, "集水面": null, "站址": "晋城市柳树口乡黄围村", "经度": 113.116667, "维度": 35.416667, "测站等": null }, "geometry": { "type": "Point", "coordinates": [ 113.116667, 35.416667 ] } },
{ "type": "Feature", "properties": { "备注": null, "编号": 1.0, "站码": 31020110.0, "站名": "黄塘", "流域名": "海河", "水系名": "漳卫南运河", "河流名": "大沙河", "站别": "PP", "行政区": 410822.0, "设站年": 200807.0, "集水面": null, "站址": "焦作市博爱县寨寄豁乡黄塘村", "经度": 113.100555, "维度": 35.2925, "测站等": null }, "geometry": { "type": "Point", "coordinates": [ 113.100555, 35.2925 ] } },
{ "type": "Feature", "properties": { "备注": null, "编号": 1.0, "站码": 31020120.0, "站名": "白莲坡", "流域名": "海河", "水系名": "漳卫南运河", "河流名": "大沙河", "站别": "PP", "行政区": 410822.0, "设站年": 200807.0, "集水面": null, "站址": "焦作市博爱县寨豁乡白莲坡村", "经度": 113.068, "维度": 35.2692, "测站等": null }, "geometry": { "type": "Point", "coordinates": [ 113.068, 35.2692 ] } },
{ "type": "Feature", "properties": { "备注": null, "编号": 1.0, "站码": 31020121.0, "站名": "张三街", "流域名": "海河", "水系名": "漳卫南运河", "河流名": "大沙河", "站别": "PP", "行政区": 410822.0, "设站年": 201204.0, "集水面": null, "站址": "焦作市博爱县寨豁乡张三街", "经度": 113.0698, "维度": 35.3004, "测站等": null }, "geometry": { "type": "Point", "coordinates": [ 113.0698, 35.3004 ] } },
{ "type": "Feature", "properties": { "备注": null, "编号": 1.0, "站码": 31020122.0, "站名": "寨豁", "流域名": "海河", "水系名": "漳卫南运河", "河流名": "大沙河", "站别": "PP", "行政区": 410822.0, "设站年": 201204.0, "集水面": null, "站址": "焦作市博爱县寨豁乡寨豁", "经度": 113.05, "维度": 35.2815, "测站等": null }, "geometry": { "type": "Point", "coordinates": [ 113.05, 35.2815 ] } },
{ "type": "Feature", "properties": { "备注": null, "编号": 1.0, "站码": 31020131.0, "站名": "郭顶", "流域名": "海河", "水系名": "漳卫南运河", "河流名": "丹河", "站别": "PP", "行政区": 410822.0, "设站年": 201204.0, "集水面": null, "站址": "焦作市博爱县许良镇郭顶", "经度": 112.9976, "维度": 35.2432, "测站等": null }, "geometry": { "type": "Point", "coordinates": [ 112.9976, 35.2432 ] } },
{ "type": "Feature", "properties": { "备注": null, "编号": 1.0, "站码": 31020132.0, "站名": "黄岭", "流域名": "海河", "水系名": "漳卫南运河", "河流名": "幸福河", "站别": "PP", "行政区": 410822.0, "设站年": 201204.0, "集水面": null, "站址": "焦作市博爱县月山镇黄岭", "经度": 113.0214, "维度": 35.224, "测站等": null }, "geometry": { "type": "Point", "coordinates": [ 113.0214, 35.224 ] } },
{ "type": "Feature", "properties": { "备注": null, "编号": 1.0, "站码": 31020133.0, "站名": "司窑", "流域名": "海河", "水系名": "漳卫南运河", "河流名": "大沙河", "站别": "PP", "行政区": 410822.0, "设站年": 201204.0, "集水面": null, "站址": "焦作市博爱县寨豁乡司窑", "经度": 113.094, "维度": 35.2378, "测站等": null }, "geometry": { "type": "Point", "coordinates": [ 113.094, 35.2378 ] } },
{ "type": "Feature", "properties": { "备注": null, "编号": 1.0, "站码": 31020150.0, "站名": "玄坛庙", "流域名": "海河", "水系名": "漳卫南运河", "河流名": "大沙河", "站别": "PP", "行政区": 410822.0, "设站年": 196201.0, "集水面": null, "站址": "焦作市博爱县寨豁乡玄坛庙", "经度": 113.0271, "维度": 35.3133, "测站等": null }, "geometry": { "type": "Point", "coordinates": [ 113.0271, 35.3133 ] } },
{ "type": "Feature", "properties": { "备注": null, "编号": 1.0, "站码": 31020151.0, "站名": "大底", "流域名": "海河", "水系名": "漳卫南运河", "河流名": "大沙河", "站别": "PP", "行政区": 410822.0, "设站年": 201204.0, "集水面": null, "站址": "焦作市博爱县寨豁乡大底", "经度": 113.0548, "维度": 35.3387, "测站等": null }, "geometry": { "type": "Point", "coordinates": [ 113.0548, 35.3387 ] } },
{ "type": "Feature", "properties": { "备注": null, "编号": 1.0, "站码": 31020152.0, "站名": "南坡", "流域名": "海河", "水系名": "漳卫南运河", "河流名": "大沙河", "站别": "PP", "行政区": 410822.0, "设站年": 201204.0, "集水面": null, "站址": "焦作市博爱县寨豁乡南坡", "经度": 113.0954, "维度": 35.329, "测站等": null }, "geometry": { "type": "Point", "coordinates": [ 113.0954, 35.329 ] } },
{ "type": "Feature", "properties": { "备注": null, "编号": 1.0, "站码": 31020200.0, "站名": "博爱", "流域名": "海河", "水系名": "漳卫南运河", "河流名": "运粮河", "站别": "PP", "行政区": 410822.0, "设站年": 195101.0, "集水面": null, "站址": "焦作市博爱县城关镇西关村", "经度": 113.0526, "维度": 35.1693, "测站等": null }, "geometry": { "type": "Point", "coordinates": [ 113.0526, 35.1693 ] } },
{ "type": "Feature", "properties": { "备注": null, "编号": 1.0, "站码": 31020201.0, "站名": "许良", "流域名": "海河", "水系名": "漳卫南运河", "河流名": "丹河", "站别": "PP", "行政区": 410822.0, "设站年": 201205.0, "集水面": null, "站址": "焦作市博爱县许良镇许良村", "经度": 113.0064, "维度": 35.1806, "测站等": null }, "geometry": { "type": "Point", "coordinates": [ 113.0064, 35.1806 ] } },
{ "type": "Feature", "properties": { "备注": null, "编号": 1.0, "站码": 31020210.0, "站名": "张木光", "流域名": "海河", "水系名": "漳卫南运河", "河流名": "幸福河", "站别": "PP", "行政区": 410822.0, "设站年": 200808.0, "集水面": null, "站址": "焦作市博爱县寨豁乡张木光村", "经度": 113.020833, "维度": 35.253611, "测站等": null }, "geometry": { "type": "Point", "coordinates": [ 113.020833, 35.253611 ] } },
{ "type": "Feature", "properties": { "备注": null, "编号": 1.0, "站码": 31020249.0, "站名": "新李庄", "流域名": "海河", "水系名": "漳卫南运河", "河流名": "蒋沟", "站别": "PP", "行政区": 410823.0, "设站年": 201206.0, "集水面": null, "站址": "焦作市武陟县小董乡新李庄村", "经度": 113.2009, "维度": 35.1518, "测站等": null }, "geometry": { "type": "Point", "coordinates": [ 113.2009, 35.1518 ] } },
{ "type": "Feature", "properties": { "备注": null, "编号": 1.0, "站码": 31020250.0, "站名": "宁郭", "流域名": "海河", "水系名": "漳卫南运河", "河流名": "蒋沟", "站别": "PP", "行政区": 410823.0, "设站年": 201205.0, "集水面": null, "站址": "焦作市武陟县宁郭乡宁郭村", "经度": 113.05, "维度": 35.15, "测站等": null }, "geometry": { "type": "Point", "coordinates": [ 113.05, 35.15 ] } },
{ "type": "Feature", "properties": { "备注": null, "编号": 1.0, "站码": 31020251.0, "站名": "磨头", "流域名": "海河", "水系名": "漳卫南运河", "河流名": "丹河", "站别": "PP", "行政区": 410822.0, "设站年": 201204.0, "集水面": null, "站址": "焦作市博爱县磨头镇磨头", "经度": 112.9988, "维度": 35.1298, "测站等": null }, "geometry": { "type": "Point", "coordinates": [ 112.9988, 35.1298 ] } },
{ "type": "Feature", "properties": { "备注": null, "编号": 1.0, "站码": 31020252.0, "站名": "西金城", "流域名": "海河", "水系名": "漳卫南运河", "河流名": "运粮河", "站别": "PP", "行政区": 410822.0, "设站年": 201205.0, "集水面": null, "站址": "焦作市博爱县金城乡西金城村", "经度": 113.1056, "维度": 35.1082, "测站等": null }, "geometry": { "type": "Point", "coordinates": [ 113.1056, 35.1082 ] } },
{ "type": "Feature", "properties": { "备注": null, "编号": 1.0, "站码": 31020253.0, "站名": "王保", "流域名": "海河", "水系名": "漳卫南运河", "河流名": "蒋沟", "站别": "PP", "行政区": 410822.0, "设站年": 201204.0, "集水面": null, "站址": "焦作市博爱县金城乡王保", "经度": 113.1348, "维度": 35.0898, "测站等": null }, "geometry": { "type": "Point", "coordinates": [ 113.1348, 35.0898 ] } },
{ "type": "Feature", "properties": { "备注": null, "编号": 1.0, "站码": 31020254.0, "站名": "丰顺店", "流域名": "海河", "水系名": "漳卫南运河", "河流名": "蒋沟", "站别": "PP", "行政区": 410823.0, "设站年": 201204.0, "集水面": null, "站址": "焦作市武陟县宁郭镇丰顺店", "经度": 113.21, "维度": 35.1153, "测站等": null }, "geometry": { "type": "Point", "coordinates": [ 113.21, 35.1153 ] } },
{ "type": "Feature", "properties": { "备注": null, "编号": 1.0, "站码": 31020255.0, "站名": "三阳", "流域名": "海河", "水系名": "漳卫南运河", "河流名": "大狮涝河", "站别": "PP", "行政区": 410823.0, "设站年": 201205.0, "集水面": null, "站址": "焦作市武陟县三阳乡三阳村", "经度": 113.2768, "维度": 35.1145, "测站等": null }, "geometry": { "type": "Point", "coordinates": [ 113.2768, 35.1145 ] } },
{ "type": "Feature", "properties": { "备注": null, "编号": 1.0, "站码": 31020256.0, "站名": "大高村", "流域名": "海河", "水系名": "漳卫南运河", "河流名": "大狮涝河", "站别": "PP", "行政区": 410821.0, "设站年": 201205.0, "集水面": null, "站址": "焦作市修武县高村乡大高村", "经度": 113.3458, "维度": 35.1759, "测站等": null }, "geometry": { "type": "Point", "coordinates": [ 113.3458, 35.1759 ] } },
{ "type": "Feature", "properties": { "备注": null, "编号": 1.0, "站码": 31020299.0, "站名": "百间房", "流域名": "海河", "水系名": "漳卫南运河", "河流名": "山门河", "站别": "PP", "行政区": 410821.0, "设站年": 201205.0, "集水面": null, "站址": "焦作市百间房乡百间房村", "经度": 113.2923, "维度": 35.2918, "测站等": null }, "geometry": { "type": "Point", "coordinates": [ 113.2923, 35.2918 ] } },
{ "type": "Feature", "properties": { "备注": null, "编号": 1.0, "站码": 31020300.0, "站名": "焦作", "流域名": "海河", "水系名": "漳卫南运河", "河流名": "新河", "站别": "PP", "行政区": 410801.0, "设站年": 195101.0, "集水面": null, "站址": "焦作市气象局", "经度": 113.1654, "维度": 35.2501, "测站等": null }, "geometry": { "type": "Point", "coordinates": [ 113.1654, 35.2501 ] } },
{ "type": "Feature", "properties": { "备注": null, "编号": 1.0, "站码": 31020301.0, "站名": "安阳城", "流域名": "海河", "水系名": "漳卫南运河", "河流名": "纸坊沟", "站别": "PP", "行政区": 410801.0, "设站年": 200807.0, "集水面": null, "站址": "焦作市安阳城政府办公楼顶楼", "经度": 113.3858, "维度": 35.3325, "测站等": null }, "geometry": { "type": "Point", "coordinates": [ 113.3858, 35.3325 ] } },
{ "type": "Feature", "properties": { "备注": null, "编号": 1.0, "站码": 31020302.0, "站名": "待王镇", "流域名": "海河", "水系名": "漳卫南运河", "河流名": "大沙河", "站别": "PP", "行政区": 410801.0, "设站年": 200807.0, "集水面": null, "站址": "焦作市代王镇政府办公楼顶楼", "经度": 113.3333, "维度": 35.2353, "测站等": null }, "geometry": { "type": "Point", "coordinates": [ 113.3333, 35.2353 ] } },
{ "type": "Feature", "properties": { "备注": null, "编号": 1.0, "站码": 31020303.0, "站名": "龙洞", "流域名": "海河", "水系名": "漳卫南运河", "河流名": "白马门河", "站别": "PP", "行政区": 410801.0, "设站年": 200808.0, "集水面": null, "站址": "焦作市龙洞乡龙洞村", "经度": 113.1267, "维度": 35.2692, "测站等": null }, "geometry": { "type": "Point", "coordinates": [ 113.1267, 35.2692 ] } },
{ "type": "Feature", "properties": { "备注": null, "编号": 1.0, "站码": 31020304.0, "站名": "焦作影视城", "流域名": "海河", "水系名": "漳卫南运河", "河流名": "白马门河", "站别": "PP", "行政区": 410801.0, "设站年": 200807.0, "集水面": null, "站址": "焦作市影视城", "经度": 113.1972, "维度": 35.2628, "测站等": null }, "geometry": { "type": "Point", "coordinates": [ 113.1972, 35.2628 ] } },
{ "type": "Feature", "properties": { "备注": null, "编号": 1.0, "站码": 31020305.0, "站名": "南敬村", "流域名": "海河", "水系名": "漳卫南运河", "河流名": "幸福河", "站别": "PP", "行政区": 410801.0, "设站年": 200808.0, "集水面": null, "站址": "焦作市朱村乡南敬村", "经度": 113.1761, "维度": 35.1828, "测站等": null }, "geometry": { "type": "Point", "coordinates": [ 113.1761, 35.1828 ] } },
{ "type": "Feature", "properties": { "备注": null, "编号": 1.0, "站码": 31020306.0, "站名": "西韩王", "流域名": "海河", "水系名": "漳卫南运河", "河流名": "山门河", "站别": "PP", "行政区": 410804.0, "设站年": 201206.0, "集水面": null, "站址": "焦作市市辖区马村区安阳城乡西韩王", "经度": 113.3319, "维度": 35.2751, "测站等": null }, "geometry": { "type": "Point", "coordinates": [ 113.3319, 35.2751 ] } },
{ "type": "Feature", "properties": { "备注": null, "编号": 1.0, "站码": 31020307.0, "站名": "山阳水利局", "流域名": "海河", "水系名": "漳卫南运河", "河流名": "新河", "站别": "PP", "行政区": 410811.0, "设站年": 201206.0, "集水面": null, "站址": "焦作市山阳区水利局", "经度": 113.2676, "维度": 35.2279, "测站等": null }, "geometry": { "type": "Point", "coordinates": [ 113.2676, 35.2279 ] } },
{ "type": "Feature", "properties": { "备注": null, "编号": 1.0, "站码": 31020308.0, "站名": "焦作水利局", "流域名": "海河", "水系名": "漳卫南运河", "河流名": "新河", "站别": "PP", "行政区": 410811.0, "设站年": 201206.0, "集水面": null, "站址": "焦作市山阳区恩村乡焦作水利局", "经度": 113.2457, "维度": 35.2217, "测站等": null }, "geometry": { "type": "Point", "coordinates": [ 113.2457, 35.2217 ] } },
{ "type": "Feature", "properties": { "备注": null, "编号": 1.0, "站码": 31020309.0, "站名": "北朱村", "流域名": "海河", "水系名": "漳卫南运河", "河流名": "白马门河", "站别": "PP", "行政区": 410811.0, "设站年": 201206.0, "集水面": null, "站址": "焦作市朱村乡北朱村", "经度": 113.1581, "维度": 35.2133, "测站等": null }, "geometry": { "type": "Point", "coordinates": [ 113.1581, 35.2133 ] } },
{ "type": "Feature", "properties": { "备注": null, "编号": 1.0, "站码": 31020350.0, "站名": "田坪", "流域名": "海河", "水系名": "漳卫南运河", "河流名": "山门河", "站别": "PP", "行政区": 410811.0, "设站年": 1962.0, "集水面": null, "站址": "焦作市修武县西村乡田坪村", "经度": 113.25, "维度": 35.333333, "测站等": null }, "geometry": { "type": "Point", "coordinates": [ 113.25, 35.333333 ] } },
{ "type": "Feature", "properties": { "备注": null, "编号": 1.0, "站码": 31020351.0, "站名": "后河", "流域名": "海河", "水系名": "漳卫南运河", "河流名": "大沙河", "站别": "PP", "行政区": 410821.0, "设站年": 201204.0, "集水面": null, "站址": "焦作市修武县西村乡后河", "经度": 113.1731, "维度": 35.3866, "测站等": null }, "geometry": { "type": "Point", "coordinates": [ 113.1731, 35.3866 ] } },
{ "type": "Feature", "properties": { "备注": null, "编号": 1.0, "站码": 31020352.0, "站名": "孤山", "流域名": "海河", "水系名": "漳卫南运河", "河流名": "山门河", "站别": "PP", "行政区": 410821.0, "设站年": 201204.0, "集水面": null, "站址": "焦作市修武县西村乡孤山", "经度": 113.2112, "维度": 35.372, "测站等": null }, "geometry": { "type": "Point", "coordinates": [ 113.2112, 35.372 ] } },
{ "type": "Feature", "properties": { "备注": null, "编号": 1.0, "站码": 31020353.0, "站名": "长岭", "流域名": "海河", "水系名": "漳卫南运河", "河流名": "山门河", "站别": "PP", "行政区": 410821.0, "设站年": 201204.0, "集水面": null, "站址": "焦作市修武县西村乡长岭", "经度": 113.2044, "维度": 35.347, "测站等": null }, "geometry": { "type": "Point", "coordinates": [ 113.2044, 35.347 ] } },
{ "type": "Feature", "properties": { "备注": null, "编号": 1.0, "站码": 31020354.0, "站名": "当阳峪", "流域名": "海河", "水系名": "漳卫南运河", "河流名": "山门河", "站别": "PP", "行政区": 410821.0, "设站年": 201204.0, "集水面": null, "站址": "焦作市修武县西村乡当阳峪", "经度": 113.2388, "维度": 35.2783, "测站等": null }, "geometry": { "type": "Point", "coordinates": [ 113.2388, 35.2783 ] } },
{ "type": "Feature", "properties": { "备注": null, "编号": 1.0, "站码": 31020355.0, "站名": "桑园", "流域名": "海河", "水系名": "漳卫南运河", "河流名": "大沙河", "站别": "PP", "行政区": 410803.0, "设站年": 201204.0, "集水面": null, "站址": "焦作市市辖区龙洞乡桑园", "经度": 113.1484, "维度": 35.3237, "测站等": null }, "geometry": { "type": "Point", "coordinates": [ 113.1484, 35.3237 ] } },
{ "type": "Feature", "properties": { "备注": null, "编号": 1.0, "站码": 31020356.0, "站名": "赵庄", "流域名": "海河", "水系名": "漳卫南运河", "河流名": "大沙河", "站别": "PP", "行政区": 410803.0, "设站年": 201204.0, "集水面": null, "站址": "焦作市市辖区龙洞乡赵庄", "经度": 113.187, "维度": 35.3053, "测站等": null }, "geometry": { "type": "Point", "coordinates": [ 113.187, 35.3053 ] } },
{ "type": "Feature", "properties": { "备注": null, "编号": 1.0, "站码": 31020400.0, "站名": "西村", "流域名": "海河", "水系名": "漳卫南运河", "河流名": "山门河", "站别": "PP", "行政区": 410821.0, "设站年": 196201.0, "集水面": null, "站址": "焦作市修武县西村乡西村", "经度": 113.2776, "维度": 35.3232, "测站等": null }, "geometry": { "type": "Point", "coordinates": [ 113.2776, 35.3232 ] } },
{ "type": "Feature", "properties": { "备注": null, "编号": 1.0, "站码": 31020450.0, "站名": "孟泉", "流域名": "海河", "水系名": "漳卫南运河", "河流名": "山门河", "站别": "PP", "行政区": 410821.0, "设站年": 200807.0, "集水面": null, "站址": "焦作市修武县西村乡虎路峪村", "经度": 113.332777, "维度": 35.35, "测站等": null }, "geometry": { "type": "Point", "coordinates": [ 113.332777, 35.35 ] } },
{ "type": "Feature", "properties": { "备注": null, "编号": 1.0, "站码": 31020460.0, "站名": "外窑", "流域名": "海河", "水系名": "漳卫南运河", "河流名": "大沙河", "站别": "PP", "行政区": 410821.0, "设站年": 200807.0, "集水面": null, "站址": "焦作市修武县方庄镇外窑村", "经度": 113.369722, "维度": 35.380833, "测站等": null }, "geometry": { "type": "Point", "coordinates": [ 113.369722, 35.380833 ] } },
{ "type": "Feature", "properties": { "备注": null, "编号": 1.0, "站码": 31020470.0, "站名": "一斗水", "流域名": "海河", "水系名": "漳卫南运河", "河流名": "纸坊沟", "站别": "PP", "行政区": 410821.0, "设站年": 200807.0, "集水面": null, "站址": "焦作市修武县岸上乡一斗水村", "经度": 113.386666, "维度": 35.479444, "测站等": null }, "geometry": { "type": "Point", "coordinates": [ 113.386666, 35.479444 ] } },
{ "type": "Feature", "properties": { "备注": null, "编号": 1.0, "站码": 31020600.0, "站名": "金岭坡", "流域名": "海河", "水系名": "漳卫南运河", "河流名": "山门河", "站别": "PP", "行政区": 410821.0, "设站年": 200807.0, "集水面": null, "站址": "焦作市修武县西村乡金岭坡村", "经度": 113.3, "维度": 35.416666, "测站等": null }, "geometry": { "type": "Point", "coordinates": [ 113.3, 35.416666 ] } },
{ "type": "Feature", "properties": { "备注": null, "编号": 1.0, "站码": 31020601.0, "站名": "东岭后", "流域名": "海河", "水系名": "漳卫南运河", "河流名": "山门河", "站别": "PP", "行政区": 410821.0, "设站年": 201204.0, "集水面": null, "站址": "焦作市修武县岸上乡东岭后", "经度": 113.3024, "维度": 35.4443, "测站等": null }, "geometry": { "type": "Point", "coordinates": [ 113.3024, 35.4443 ] } },
{ "type": "Feature", "properties": { "备注": null, "编号": 1.0, "站码": 31020610.0, "站名": "云台山", "流域名": "海河", "水系名": "漳卫南运河", "河流名": "纸坊沟", "站别": "PP", "行政区": 410821.0, "设站年": 200807.0, "集水面": null, "站址": "焦作市修武县岸上乡云台山", "经度": 113.356388, "维度": 35.451666, "测站等": null }, "geometry": { "type": "Point", "coordinates": [ 113.356388, 35.451666 ] } },
{ "type": "Feature", "properties": { "备注": null, "编号": 2.0, "站码": 31020650.0, "站名": "吴村", "流域名": "海河流域", "水系名": "南运河", "河流名": "纸坊沟", "站别": "P", "行政区": 0.0, "设站年": 1966.0, "集水面": null, "站址": "河南省辉县市吴村乡吴村", "经度": 113.29, "维度": 35.22, "测站等": null }, "geometry": { "type": "Point", "coordinates": [ 113.29, 35.22 ] } },
{ "type": "Feature", "properties": { "备注": null, "编号": 1.0, "站码": 31020651.0, "站名": "沙墙", "流域名": "海河", "水系名": "漳卫南运河", "河流名": "纸坊沟", "站别": "PP", "行政区": 410821.0, "设站年": 201204.0, "集水面": null, "站址": "焦作市修武县方庄镇沙墙", "经度": 113.4314, "维度": 35.4062, "测站等": null }, "geometry": { "type": "Point", "coordinates": [ 113.4314, 35.4062 ] } },
{ "type": "Feature", "properties": { "备注": null, "编号": 1.0, "站码": 31020652.0, "站名": "方庄", "流域名": "海河", "水系名": "漳卫南运河", "河流名": "纸坊沟", "站别": "PP", "行政区": 410821.0, "设站年": 201205.0, "集水面": null, "站址": "焦作市修武县方庄镇方庄", "经度": 113.3973, "维度": 35.3658, "测站等": null }, "geometry": { "type": "Point", "coordinates": [ 113.3973, 35.3658 ] } },
{ "type": "Feature", "properties": { "备注": null, "编号": 1.0, "站码": 31020653.0, "站名": "周庄", "流域名": "海河", "水系名": "漳卫南运河", "河流名": "峪河", "站别": "PP", "行政区": 410782.0, "设站年": 201204.0, "集水面": null, "站址": "新乡市辉县市薄壁镇周庄", "经度": 113.4566, "维度": 35.4371, "测站等": null }, "geometry": { "type": "Point", "coordinates": [ 113.4566, 35.4371 ] } },
{ "type": "Feature", "properties": { "备注": null, "编号": 1.0, "站码": 31020654.0, "站名": "上马庄", "流域名": "海河", "水系名": "漳卫南运河", "河流名": "峪河", "站别": "PP", "行政区": 410782.0, "设站年": 0.0, "集水面": null, "站址": "新乡市辉县市薄壁镇上马庄", "经度": 113.505833, "维度": 35.426111, "测站等": null }, "geometry": { "type": "Point", "coordinates": [ 113.505833, 35.426111 ] } },
{ "type": "Feature", "properties": { "备注": null, "编号": 1.0, "站码": 31020655.0, "站名": "赵和庄", "流域名": "海河", "水系名": "漳卫南运河", "河流名": "峪河", "站别": "PP", "行政区": 410782.0, "设站年": 0.0, "集水面": null, "站址": "新乡市辉县市王敬屯乡赵和庄", "经度": 113.486111, "维度": 35.403333, "测站等": null }, "geometry": { "type": "Point", "coordinates": [ 113.486111, 35.403333 ] } },
{ "type": "Feature", "properties": { "备注": null, "编号": 1.0, "站码": 31020700.0, "站名": "古郊", "流域名": "海河", "水系名": "漳卫南运河", "河流名": "峪河", "站别": "PP", "行政区": 140524.0, "设站年": 195701.0, "集水面": null, "站址": "山西省陵川县古郊乡南边村", "经度": 113.5, "维度": 35.7, "测站等": null }, "geometry": { "type": "Point", "coordinates": [ 113.5, 35.7 ] } },
{ "type": "Feature", "properties": { "备注": null, "编号": 1.0, "站码": 31020750.0, "站名": "西石门", "流域名": "海河", "水系名": "漳卫南运河", "河流名": "峪河", "站别": "PP", "行政区": 140524.0, "设站年": 195201.0, "集水面": null, "站址": "山西省陵川县横水乡横水村", "经度": 113.296111, "维度": 35.717777, "测站等": null }, "geometry": { "type": "Point", "coordinates": [ 113.296111, 35.717777 ] } },
{ "type": "Feature", "properties": { "备注": null, "编号": 1.0, "站码": 31020800.0, "站名": "凤凰", "流域名": "海河", "水系名": "漳卫南运河", "河流名": "峪河", "站别": "PP", "行政区": 140524.0, "设站年": 0.0, "集水面": null, "站址": "陵川县夺火乡凤凰村", "经度": 113.316667, "维度": 35.583333, "测站等": null }, "geometry": { "type": "Point", "coordinates": [ 113.316667, 35.583333 ] } },
{ "type": "Feature", "properties": { "备注": null, "编号": 1.0, "站码": 31020850.0, "站名": "琵琶河", "流域名": "海河", "水系名": "漳卫南运河", "河流名": "峪河", "站别": "PP", "行政区": 140524.0, "设站年": 196301.0, "集水面": null, "站址": "山西省陵川县夺火乡琵琶河村", "经度": 113.233889, "维度": 35.619999, "测站等": null }, "geometry": { "type": "Point", "coordinates": [ 113.233889, 35.619999 ] } },
{ "type": "Feature", "properties": { "备注": null, "编号": 1.0, "站码": 31020900.0, "站名": "平甸", "流域名": "海河", "水系名": "漳卫南运河", "河流名": "峪河", "站别": "PP", "行政区": 410782.0, "设站年": 0.0, "集水面": null, "站址": "辉县市薄壁乡平甸村", "经度": 113.444, "维度": 35.5089, "测站等": null }, "geometry": { "type": "Point", "coordinates": [ 113.444, 35.5089 ] } },
{ "type": "Feature", "properties": { "备注": null, "编号": 1.0, "站码": 31020950.0, "站名": "西寨山", "流域名": "海河", "水系名": "漳卫南运河", "河流名": "峪河", "站别": "PP", "行政区": 410782.0, "设站年": 0.0, "集水面": null, "站址": "辉县市薄壁乡西塞山村", "经度": 113.44, "维度": 35.436, "测站等": null }, "geometry": { "type": "Point", "coordinates": [ 113.44, 35.436 ] } },
{ "type": "Feature", "properties": { "备注": null, "编号": 1.0, "站码": 31021021.0, "站名": "西沟", "流域名": "海河", "水系名": "漳卫南运河", "河流名": "峪河", "站别": "PP", "行政区": 410782.0, "设站年": 201204.0, "集水面": null, "站址": "新乡市辉县市薄壁镇西沟", "经度": 113.4173, "维度": 35.4981, "测站等": null }, "geometry": { "type": "Point", "coordinates": [ 113.4173, 35.4981 ] } },
{ "type": "Feature", "properties": { "备注": null, "编号": 1.0, "站码": 31021022.0, "站名": "谷浴寺", "流域名": "海河", "水系名": "漳卫南运河", "河流名": "峪河", "站别": "PP", "行政区": 410782.0, "设站年": 201204.0, "集水面": null, "站址": "新乡市辉县市薄壁镇龙云寺", "经度": 113.4909, "维度": 35.4724, "测站等": null }, "geometry": { "type": "Point", "coordinates": [ 113.4909, 35.4724 ] } },
{ "type": "Feature", "properties": { "备注": null, "编号": 1.0, "站码": 31021050.0, "站名": "获嘉", "流域名": "海河", "水系名": "漳卫南运河", "河流名": "共产主义渠", "站别": "PP", "行政区": 410724.0, "设站年": 0.0, "集水面": null, "站址": "新乡市获嘉县气象局", "经度": 113.4, "维度": 35.16, "测站等": null }, "geometry": { "type": "Point", "coordinates": [ 113.4, 35.16 ] } },
{ "type": "Feature", "properties": { "备注": null, "编号": 1.0, "站码": 31021100.0, "站名": "官山", "流域名": "海河", "水系名": "漳卫南运河", "河流名": "马头口", "站别": "PP", "行政区": 410782.0, "设站年": 195901.0, "集水面": null, "站址": "新乡市辉县市上八里乡官山村", "经度": 113.511111, "维度": 35.552778, "测站等": null }, "geometry": { "type": "Point", "coordinates": [ 113.511111, 35.552778 ] } },
{ "type": "Feature", "properties": { "备注": null, "编号": 1.0, "站码": 31021150.0, "站名": "白草岗", "流域名": "海河", "水系名": "漳卫南运河", "河流名": "石门河", "站别": "PP", "行政区": 410782.0, "设站年": 0.0, "集水面": null, "站址": "辉县市冀屯乡白草岗村", "经度": 113.583, "维度": 35.433, "测站等": null }, "geometry": { "type": "Point", "coordinates": [ 113.583, 35.433 ] } },
{ "type": "Feature", "properties": { "备注": null, "编号": 1.0, "站码": 31021151.0, "站名": "褚丘", "流域名": "海河", "水系名": "漳卫南运河", "河流名": "石门河", "站别": "PP", "行政区": 410782.0, "设站年": 0.0, "集水面": null, "站址": "新乡市辉县市褚丘乡褚丘村", "经度": 113.6074, "维度": 35.4793, "测站等": null }, "geometry": { "type": "Point", "coordinates": [ 113.6074, 35.4793 ] } },
{ "type": "Feature", "properties": { "备注": null, "编号": 1.0, "站码": 31021200.0, "站名": "五里窑", "流域名": "海河", "水系名": "漳卫南运河", "河流名": "石门河", "站别": "PP", "行政区": 410782.0, "设站年": 0.0, "集水面": null, "站址": "辉县市上八里乡五里窑村", "经度": 113.55, "维度": 35.6167, "测站等": null }, "geometry": { "type": "Point", "coordinates": [ 113.55, 35.6167 ] } },
{ "type": "Feature", "properties": { "备注": null, "编号": 1.0, "站码": 31021201.0, "站名": "回龙", "流域名": "海河", "水系名": "漳卫南运河", "河流名": "黄水河", "站别": "PP", "行政区": 410782.0, "设站年": 201204.0, "集水面": null, "站址": "新乡市辉县市上八里镇回龙", "经度": 113.6087, "维度": 35.5958, "测站等": null }, "geometry": { "type": "Point", "coordinates": [ 113.6087, 35.5958 ] } },
{ "type": "Feature", "properties": { "备注": null, "编号": 1.0, "站码": 31021202.0, "站名": "龙水梯", "流域名": "海河", "水系名": "漳卫南运河", "河流名": "黄水河", "站别": "PP", "行政区": 410782.0, "设站年": 201204.0, "集水面": null, "站址": "新乡市辉县市黄水乡龙水梯", "经度": 113.6332, "维度": 35.6284, "测站等": null }, "geometry": { "type": "Point", "coordinates": [ 113.6332, 35.6284 ] } },
{ "type": "Feature", "properties": { "备注": null, "编号": 2.0, "站码": 31021400.0, "站名": "上八里", "流域名": "海河流域", "水系名": "南运河", "河流名": "石门河", "站别": "P", "行政区": 0.0, "设站年": 1956.0, "集水面": null, "站址": "河南省辉县市上八里乡上八里村", "经度": 113.39, "维度": 35.32, "测站等": null }, "geometry": { "type": "Point", "coordinates": [ 113.39, 35.32 ] } },
{ "type": "Feature", "properties": { "备注": null, "编号": 1.0, "站码": 31021450.0, "站名": "黄水口", "流域名": "海河", "水系名": "漳卫南运河", "河流名": "黄水河", "站别": "PP", "行政区": 410782.0, "设站年": 196601.0, "集水面": null, "站址": "新乡市辉县市黄水乡河西村", "经度": 113.7, "维度": 35.533055, "测站等": null }, "geometry": { "type": "Point", "coordinates": [ 113.7, 35.533055 ] } },
{ "type": "Feature", "properties": { "备注": null, "编号": 1.0, "站码": 31021451.0, "站名": "新乡庄", "流域名": "海河", "水系名": "漳卫南运河", "河流名": "黄水河", "站别": "PP", "行政区": 410782.0, "设站年": 0.0, "集水面": null, "站址": "新乡市辉县市洪洲乡新乡庄村", "经度": 113.699444, "维度": 35.537778, "测站等": null }, "geometry": { "type": "Point", "coordinates": [ 113.699444, 35.537778 ] } },
{ "type": "Feature", "properties": { "备注": null, "编号": 1.0, "站码": 31021452.0, "站名": "苗固", "流域名": "海河", "水系名": "漳卫南运河", "河流名": "黄水河", "站别": "PP", "行政区": 410782.0, "设站年": 201204.0, "集水面": null, "站址": "新乡市辉县市赵固乡苗固", "经度": 113.6963, "维度": 35.4299, "测站等": null }, "geometry": { "type": "Point", "coordinates": [ 113.6963, 35.4299 ] } },
{ "type": "Feature", "properties": { "备注": null, "编号": 1.0, "站码": 31021500.0, "站名": "高庄", "流域名": "海河", "水系名": "漳卫南运河", "河流名": "刘店干河", "站别": "PP", "行政区": 410782.0, "设站年": 0.0, "集水面": null, "站址": "辉县市高庄乡高庄村", "经度": 113.75, "维度": 35.55, "测站等": null }, "geometry": { "type": "Point", "coordinates": [ 113.75, 35.55 ] } },
{ "type": "Feature", "properties": { "备注": null, "编号": 1.0, "站码": 31021501.0, "站名": "外河水库", "流域名": "海河", "水系名": "漳卫南运河", "河流名": "刘店干河", "站别": "PP", "行政区": 410782.0, "设站年": 201204.0, "集水面": null, "站址": "新乡市辉县市张村乡外河水库", "经度": 113.868, "维度": 35.5873, "测站等": null }, "geometry": { "type": "Point", "coordinates": [ 113.868, 35.5873 ] } },
{ "type": "Feature", "properties": { "备注": null, "编号": 1.0, "站码": 31021502.0, "站名": "东张飞城", "流域名": "海河", "水系名": "漳卫南运河", "河流名": "刘店干河", "站别": "PP", "行政区": 410782.0, "设站年": 0.0, "集水面": null, "站址": "新乡市辉县市高庄乡东张飞城村", "经度": 113.803611, "维度": 35.556389, "测站等": null }, "geometry": { "type": "Point", "coordinates": [ 113.803611, 35.556389 ] } },
{ "type": "Feature", "properties": { "备注": null, "编号": 1.0, "站码": 31021503.0, "站名": "大枣园", "流域名": "海河", "水系名": "漳卫南运河", "河流名": "刘店干河", "站别": "PP", "行政区": 410782.0, "设站年": 0.0, "集水面": null, "站址": "新乡市辉县市张村乡大枣园村", "经度": 113.864722, "维度": 35.546944, "测站等": null }, "geometry": { "type": "Point", "coordinates": [ 113.864722, 35.546944 ] } },
{ "type": "Feature", "properties": { "备注": null, "编号": 1.0, "站码": 31021510.0, "站名": "张村", "流域名": "海河", "水系名": "漳卫南运河", "河流名": "海河", "站别": "PP", "行政区": 410782.0, "设站年": 0.0, "集水面": null, "站址": "辉县市张村乡政府", "经度": 113.901, "维度": 35.5246, "测站等": null }, "geometry": { "type": "Point", "coordinates": [ 113.901, 35.5246 ] } },
{ "type": "Feature", "properties": { "备注": null, "编号": 1.0, "站码": 31021540.0, "站名": "丁庄", "流域名": "海河", "水系名": "漳卫南运河", "河流名": "海河", "站别": "PP", "行政区": 410782.0, "设站年": 0.0, "集水面": null, "站址": "辉县市南村镇丁庄村", "经度": 113.752, "维度": 35.6461, "测站等": null }, "geometry": { "type": "Point", "coordinates": [ 113.752, 35.6461 ] } },
{ "type": "Feature", "properties": { "备注": null, "编号": 1.0, "站码": 31021550.0, "站名": "茅草庄", "流域名": "海河", "水系名": "漳卫南运河", "河流名": "海河", "站别": "PP", "行政区": 410782.0, "设站年": 0.0, "集水面": null, "站址": "辉县市洪州乡茅草庄村", "经度": 113.65, "维度": 35.5333, "测站等": null }, "geometry": { "type": "Point", "coordinates": [ 113.65, 35.5333 ] } },
{ "type": "Feature", "properties": { "备注": null, "编号": 1.0, "站码": 31021599.0, "站名": "后庄水库", "流域名": "海河", "水系名": "漳卫南运河", "河流名": "淇河", "站别": "PP", "行政区": 410782.0, "设站年": 201204.0, "集水面": null, "站址": "新乡市辉县市拍石头乡后庄水库", "经度": 113.8385, "维度": 35.6679, "测站等": null }, "geometry": { "type": "Point", "coordinates": [ 113.8385, 35.6679 ] } },
{ "type": "Feature", "properties": { "备注": null, "编号": 1.0, "站码": 31021600.0, "站名": "四里厂", "流域名": "海河", "水系名": "漳卫南运河", "河流名": "刘店干河", "站别": "PP", "行政区": 410782.0, "设站年": 0.0, "集水面": null, "站址": "辉县市拍石头乡", "经度": 114.111, "维度": 35.499, "测站等": null }, "geometry": { "type": "Point", "coordinates": [ 114.111, 35.499 ] } },
{ "type": "Feature", "properties": { "备注": null, "编号": 1.0, "站码": 31021602.0, "站名": "白云寺", "流域名": "海河", "水系名": "漳卫南运河", "河流名": "海河", "站别": "PP", "行政区": 410782.0, "设站年": 0.0, "集水面": null, "站址": "新乡市辉县市薄壁镇白云寺村", "经度": 113.529, "维度": 35.4696, "测站等": null }, "geometry": { "type": "Point", "coordinates": [ 113.529, 35.4696 ] } },
{ "type": "Feature", "properties": { "备注": null, "编号": 1.0, "站码": 31021603.0, "站名": "鸭口", "流域名": "海河", "水系名": "漳卫南运河", "河流名": "海河", "站别": "PP", "行政区": 410782.0, "设站年": 0.0, "集水面": null, "站址": "新乡市辉县市上八里镇鸭口村", "经度": 113.557, "维度": 35.5111, "测站等": null }, "geometry": { "type": "Point", "coordinates": [ 113.557, 35.5111 ] } },
{ "type": "Feature", "properties": { "备注": null, "编号": 1.0, "站码": 31021604.0, "站名": "张雷", "流域名": "海河", "水系名": "漳卫南运河", "河流名": "海河", "站别": "PP", "行政区": 410782.0, "设站年": 0.0, "集水面": null, "站址": "新乡市辉县市百泉镇张雷村", "经度": 113.736, "维度": 35.503, "测站等": null }, "geometry": { "type": "Point", "coordinates": [ 113.736, 35.503 ] } },
{ "type": "Feature", "properties": { "备注": null, "编号": 1.0, "站码": 31021605.0, "站名": "占城", "流域名": "海河", "水系名": "漳卫南运河", "河流名": "海河", "站别": "PP", "行政区": 410782.0, "设站年": 0.0, "集水面": null, "站址": "新乡市辉县市占城乡占城村", "经度": 113.678, "维度": 35.373, "测站等": null }, "geometry": { "type": "Point", "coordinates": [ 113.678, 35.373 ] } },
{ "type": "Feature", "properties": { "备注": null, "编号": 1.0, "站码": 31021606.0, "站名": "新村", "流域名": "海河", "水系名": "漳卫南运河", "河流名": "海河", "站别": "PP", "行政区": 410782.0, "设站年": 0.0, "集水面": null, "站址": "新乡市辉县市南村乡新村", "经度": 113.695, "维度": 35.689, "测站等": null }, "geometry": { "type": "Point", "coordinates": [ 113.695, 35.689 ] } },
{ "type": "Feature", "properties": { "备注": null, "编号": 1.0, "站码": 31021607.0, "站名": "二十里铺", "流域名": "海河", "水系名": "漳卫南运河", "河流名": "大狮捞河", "站别": "PP", "行政区": 410821.0, "设站年": 201005.0, "集水面": null, "站址": "焦作市修武县葛庄乡二十里铺村", "经度": 113.492, "维度": 35.245, "测站等": null }, "geometry": { "type": "Point", "coordinates": [ 113.492, 35.245 ] } },
{ "type": "Feature", "properties": { "备注": null, "编号": 1.0, "站码": 31021608.0, "站名": "李万", "流域名": "海河", "水系名": "漳卫南运河", "河流名": "蒋沟", "站别": "PP", "行政区": 410821.0, "设站年": 201005.0, "集水面": null, "站址": "焦作市修武县李万乡李万村", "经度": 113.215, "维度": 35.177, "测站等": null }, "geometry": { "type": "Point", "coordinates": [ 113.215, 35.177 ] } },
{ "type": "Feature", "properties": { "备注": null, "编号": 1.0, "站码": 31021609.0, "站名": "王屯", "流域名": "海河", "水系名": "漳卫南运河", "河流名": "大狮捞河", "站别": "PP", "行政区": 410821.0, "设站年": 201005.0, "集水面": null, "站址": "焦作市修武县王屯乡王屯村", "经度": 113.428, "维度": 35.176, "测站等": null }, "geometry": { "type": "Point", "coordinates": [ 113.428, 35.176 ] } },
{ "type": "Feature", "properties": { "备注": null, "编号": 1.0, "站码": 31021610.0, "站名": "郇封", "流域名": "海河", "水系名": "漳卫南运河", "河流名": "大狮捞河", "站别": "PP", "行政区": 410821.0, "设站年": 201205.0, "集水面": null, "站址": "焦作市修武县郇封镇郇封", "经度": 113.4703, "维度": 35.1853, "测站等": null }, "geometry": { "type": "Point", "coordinates": [ 113.4703, 35.1853 ] } },
{ "type": "Feature", "properties": { "备注": null, "编号": 1.0, "站码": 31021650.0, "站名": "辉县", "流域名": "海河", "水系名": "漳卫南运河", "河流名": "刘店干河", "站别": "PP", "行政区": 410782.0, "设站年": 0.0, "集水面": null, "站址": "新乡市辉县市气象局", "经度": 113.806944, "维度": 35.452778, "测站等": null }, "geometry": { "type": "Point", "coordinates": [ 113.806944, 35.452778 ] } },
{ "type": "Feature", "properties": { "备注": null, "编号": 1.0, "站码": 31021651.0, "站名": "百泉", "流域名": "海河", "水系名": "漳卫南运河", "河流名": "刘店干河", "站别": "PP", "行政区": 410782.0, "设站年": 0.0, "集水面": null, "站址": "新乡市辉县市百泉镇百泉", "经度": 113.779167, "维度": 35.485556, "测站等": null }, "geometry": { "type": "Point", "coordinates": [ 113.779167, 35.485556 ] } },
{ "type": "Feature", "properties": { "备注": null, "编号": 1.0, "站码": 31021652.0, "站名": "胡桥", "流域名": "海河", "水系名": "漳卫南运河", "河流名": "刘店干河", "站别": "PP", "行政区": 410782.0, "设站年": 0.0, "集水面": null, "站址": "新乡市辉县市胡桥乡胡桥村", "经度": 113.7776, "维度": 35.4404, "测站等": null }, "geometry": { "type": "Point", "coordinates": [ 113.7776, 35.4404 ] } },
{ "type": "Feature", "properties": { "备注": null, "编号": 1.0, "站码": 31021653.0, "站名": "南观营", "流域名": "海河", "水系名": "漳卫南运河", "河流名": "刘店干河", "站别": "PP", "行政区": 410782.0, "设站年": 201204.0, "集水面": null, "站址": "新乡市辉县市胡桥乡南观营", "经度": 113.7718, "维度": 35.4105, "测站等": null }, "geometry": { "type": "Point", "coordinates": [ 113.7718, 35.4105 ] } },
{ "type": "Feature", "properties": { "备注": null, "编号": 1.0, "站码": 31021654.0, "站名": "后窑", "流域名": "海河", "水系名": "漳卫南运河", "河流名": "刘店干河", "站别": "PP", "行政区": 410782.0, "设站年": 201204.0, "集水面": null, "站址": "新乡市辉县市百泉镇后窑", "经度": 113.8329, "维度": 35.5032, "测站等": null }, "geometry": { "type": "Point", "coordinates": [ 113.8329, 35.5032 ] } },
{ "type": "Feature", "properties": { "备注": null, "编号": 1.0, "站码": 31021655.0, "站名": "冯窑", "流域名": "海河", "水系名": "漳卫南运河", "河流名": "刘店干河", "站别": "PP", "行政区": 410782.0, "设站年": 201204.0, "集水面": null, "站址": "新乡市辉县市常村镇冯窑", "经度": 113.8834, "维度": 35.4776, "测站等": null }, "geometry": { "type": "Point", "coordinates": [ 113.8834, 35.4776 ] } },
{ "type": "Feature", "properties": { "备注": null, "编号": 1.0, "站码": 31021656.0, "站名": "赵凝屯", "流域名": "海河", "水系名": "漳卫南运河", "河流名": "共产主义渠", "站别": "PP", "行政区": 410782.0, "设站年": 0.0, "集水面": null, "站址": "新乡市辉县市常村镇赵凝屯村", "经度": 113.858611, "维度": 35.441389, "测站等": null }, "geometry": { "type": "Point", "coordinates": [ 113.858611, 35.441389 ] } },
{ "type": "Feature", "properties": { "备注": null, "编号": 2.0, "站码": 31021700.0, "站名": "合河", "流域名": null, "水系名": null, "河流名": null, "站别": null, "行政区": 0.0, "设站年": 0.0, "集水面": null, "站址": "河南省新乡县合河乡后贾村", "经度": 113.45, "维度": 35.21, "测站等": null }, "geometry": { "type": "Point", "coordinates": [ 113.45, 35.21 ] } },
{ "type": "Feature", "properties": { "备注": null, "编号": 1.0, "站码": 31021701.0, "站名": "赵吴巷", "流域名": "海河", "水系名": "漳卫南运河", "河流名": "共产主义渠", "站别": "PP", "行政区": 410724.0, "设站年": 0.0, "集水面": null, "站址": "新乡市获嘉县徐营镇赵吴巷村", "经度": 113.571, "维度": 35.187, "测站等": null }, "geometry": { "type": "Point", "coordinates": [ 113.571, 35.187 ] } },
{ "type": "Feature", "properties": { "备注": null, "编号": 1.0, "站码": 31021702.0, "站名": "史庄", "流域名": "海河", "水系名": "漳卫南运河", "河流名": "共产主义渠", "站别": "PP", "行政区": 410724.0, "设站年": 0.0, "集水面": null, "站址": "新乡市获嘉县史庄镇史庄村", "经度": 113.6103, "维度": 35.2366, "测站等": null }, "geometry": { "type": "Point", "coordinates": [ 113.6103, 35.2366 ] } },
{ "type": "Feature", "properties": { "备注": null, "编号": 1.0, "站码": 31021703.0, "站名": "西彰仪", "流域名": "海河", "水系名": "漳卫南运河", "河流名": "共产主义渠", "站别": "PP", "行政区": 410724.0, "设站年": 0.0, "集水面": null, "站址": "新乡市获嘉县照镜乡西彰仪村", "经度": 113.665, "维度": 35.294, "测站等": null }, "geometry": { "type": "Point", "coordinates": [ 113.665, 35.294 ] } },
{ "type": "Feature", "properties": { "备注": null, "编号": 1.0, "站码": 31021704.0, "站名": "黄堤", "流域名": "海河", "水系名": "漳卫南运河", "河流名": "共产主义渠", "站别": "PP", "行政区": 410724.0, "设站年": 0.0, "集水面": null, "站址": "新乡市获嘉县黄堤镇黄堤村", "经度": 113.5403, "维度": 35.2467, "测站等": null }, "geometry": { "type": "Point", "coordinates": [ 113.5403, 35.2467 ] } },
{ "type": "Feature", "properties": { "备注": null, "编号": 1.0, "站码": 31021705.0, "站名": "尚厂", "流域名": "海河", "水系名": "漳卫南运河", "河流名": "大沙河", "站别": "PP", "行政区": 410782.0, "设站年": 0.0, "集水面": null, "站址": "新乡市辉县市吴村镇尚厂村", "经度": 113.505, "维度": 35.319, "测站等": null }, "geometry": { "type": "Point", "coordinates": [ 113.505, 35.319 ] } },
{ "type": "Feature", "properties": { "备注": null, "编号": 1.0, "站码": 31021706.0, "站名": "穆家营", "流域名": "海河", "水系名": "漳卫南运河", "河流名": "大沙河", "站别": "PP", "行政区": 410782.0, "设站年": 201204.0, "集水面": null, "站址": "新乡市辉县市峪河镇穆家营", "经度": 113.5928, "维度": 35.3092, "测站等": null }, "geometry": { "type": "Point", "coordinates": [ 113.5928, 35.3092 ] } },
{ "type": "Feature", "properties": { "备注": null, "编号": 1.0, "站码": 31021707.0, "站名": "峪河", "流域名": "海河", "水系名": "漳卫南运河", "河流名": "峪河", "站别": "PP", "行政区": 410782.0, "设站年": 0.0, "集水面": null, "站址": "新乡市辉县市峪河镇峪河一街", "经度": 113.5889, "维度": 35.3619, "测站等": null }, "geometry": { "type": "Point", "coordinates": [ 113.5889, 35.3619 ] } },
{ "type": "Feature", "properties": { "备注": null, "编号": 1.0, "站码": 31021740.0, "站名": "张唐马", "流域名": "海河", "水系名": "漳卫南运河", "河流名": "卫河", "站别": "PP", "行政区": 410721.0, "设站年": 0.0, "集水面": null, "站址": "新乡市新乡县大召营乡张唐马村", "经度": 113.75, "维度": 35.25, "测站等": null }, "geometry": { "type": "Point", "coordinates": [ 113.75, 35.25 ] } },
{ "type": "Feature", "properties": { "备注": null, "编号": 1.0, "站码": 31021741.0, "站名": "南于店", "流域名": "海河", "水系名": "漳卫南运河", "河流名": "卫河", "站别": "PP", "行政区": 410721.0, "设站年": 201105.0, "集水面": null, "站址": "新乡市新乡县朗公庙镇南于店", "经度": 113.926, "维度": 35.201, "测站等": null }, "geometry": { "type": "Point", "coordinates": [ 113.926, 35.201 ] } },
{ "type": "Feature", "properties": { "备注": null, "编号": 1.0, "站码": 31021742.0, "站名": "大块", "流域名": "海河", "水系名": "漳卫南运河", "河流名": "共产主义渠", "站别": "PP", "行政区": 410721.0, "设站年": 201105.0, "集水面": null, "站址": "新乡市新乡县大块镇政府", "经度": 113.789, "维度": 35.367, "测站等": null }, "geometry": { "type": "Point", "coordinates": [ 113.789, 35.367 ] } },
{ "type": "Feature", "properties": { "备注": null, "编号": 2.0, "站码": 31021750.0, "站名": "八里营", "流域名": null, "水系名": null, "河流名": null, "站别": null, "行政区": 0.0, "设站年": 0.0, "集水面": null, "站址": "河南省新乡市平原乡路庄", "经度": 113.5, "维度": 35.17, "测站等": null }, "geometry": { "type": "Point", "coordinates": [ 113.5, 35.17 ] } },
{ "type": "Feature", "properties": { "备注": null, "编号": 1.0, "站码": 31021850.0, "站名": "忠义", "流域名": "海河", "水系名": "漳卫南运河", "河流名": "人民胜利渠", "站别": "PP", "行政区": 410724.0, "设站年": 0.0, "集水面": null, "站址": "新乡市获嘉县冯庄乡冯庄村", "经度": 113.65, "维度": 35.083333, "测站等": null }, "geometry": { "type": "Point", "coordinates": [ 113.65, 35.083333 ] } },
{ "type": "Feature", "properties": { "备注": null, "编号": 1.0, "站码": 31021900.0, "站名": "小吉", "流域名": "海河", "水系名": "漳卫南运河", "河流名": "人民胜利渠", "站别": "PP", "行政区": 410721.0, "设站年": 0.0, "集水面": null, "站址": "新乡市新乡县小吉镇小吉村", "经度": 113.75, "维度": 35.2, "测站等": null }, "geometry": { "type": "Point", "coordinates": [ 113.75, 35.2 ] } },
{ "type": "Feature", "properties": { "备注": null, "编号": 1.0, "站码": 31021902.0, "站名": "亢村北街", "流域名": "海河", "水系名": "漳卫南运河", "河流名": "人民胜利渠", "站别": "PP", "行政区": 410724.0, "设站年": 201204.0, "集水面": null, "站址": "新乡市获嘉县亢村镇亢村北街", "经度": 113.6872, "维度": 35.1243, "测站等": null }, "geometry": { "type": "Point", "coordinates": [ 113.6872, 35.1243 ] } },
{ "type": "Feature", "properties": { "备注": null, "编号": 1.0, "站码": 31021903.0, "站名": "康庄", "流域名": "海河", "水系名": "漳卫南运河", "河流名": "东孟姜女河", "站别": "PP", "行政区": 410721.0, "设站年": 0.0, "集水面": null, "站址": "新乡县七里营镇康庄村", "经度": 114.114, "维度": 34.9857, "测站等": null }, "geometry": { "type": "Point", "coordinates": [ 114.114, 34.9857 ] } },
{ "type": "Feature", "properties": { "备注": null, "编号": 1.0, "站码": 31021945.0, "站名": "毛滩", "流域名": "海河", "水系名": "漳卫南运河", "河流名": "卫河", "站别": "PP", "行政区": 410721.0, "设站年": 0.0, "集水面": null, "站址": "新乡县七里营乡毛滩村", "经度": 113.83, "维度": 35.13, "测站等": null }, "geometry": { "type": "Point", "coordinates": [ 113.83, 35.13 ] } },
{ "type": "Feature", "properties": { "备注": null, "编号": 2.0, "站码": 31021950.0, "站名": "郎公庙", "流域名": null, "水系名": null, "河流名": null, "站别": null, "行政区": 0.0, "设站年": 0.0, "集水面": null, "站址": "河南省新乡县郎公庙乡郎公庙村", "经度": 113.55, "维度": 35.12999, "测站等": null }, "geometry": { "type": "Point", "coordinates": [ 113.55, 35.12999 ] } },
{ "type": "Feature", "properties": { "备注": null, "编号": 1.0, "站码": 31022001.0, "站名": "小杨庄", "流域名": "海河", "水系名": "漳卫南运河", "河流名": "西柳青河", "站别": "PP", "行政区": 410726.0, "设站年": 201105.0, "集水面": null, "站址": "新乡市延津县东屯镇小杨庄", "经度": 114.066, "维度": 35.308, "测站等": null }, "geometry": { "type": "Point", "coordinates": [ 114.066, 35.308 ] } },
{ "type": "Feature", "properties": { "备注": null, "编号": 1.0, "站码": 31022002.0, "站名": "小店", "流域名": "海河", "水系名": "漳卫南运河", "河流名": "卫河", "站别": "PP", "行政区": 410726.0, "设站年": 0.0, "集水面": null, "站址": "新乡市延津县小店镇小店", "经度": 113.9837, "维度": 35.2892, "测站等": null }, "geometry": { "type": "Point", "coordinates": [ 113.9837, 35.2892 ] } },
{ "type": "Feature", "properties": { "备注": null, "编号": 1.0, "站码": 31022003.0, "站名": "古固寨", "流域名": "海河", "水系名": "漳卫南运河", "河流名": "卫河", "站别": "PP", "行政区": 410721.0, "设站年": 0.0, "集水面": null, "站址": "新乡市新乡县古固寨镇古固寨中街", "经度": 113.9515, "维度": 35.2374, "测站等": null }, "geometry": { "type": "Point", "coordinates": [ 113.9515, 35.2374 ] } },
{ "type": "Feature", "properties": { "备注": null, "编号": 1.0, "站码": 31022004.0, "站名": "小河", "流域名": "海河", "水系名": "漳卫南运河", "河流名": "卫河", "站别": "PP", "行政区": 410721.0, "设站年": 0.0, "集水面": null, "站址": "新乡市新乡县郎公庙镇小河村", "经度": 113.841, "维度": 35.19, "测站等": null }, "geometry": { "type": "Point", "coordinates": [ 113.841, 35.19 ] } },
{ "type": "Feature", "properties": { "备注": null, "编号": 1.0, "站码": 31022005.0, "站名": "洪门", "流域名": "海河", "水系名": "漳卫南运河", "河流名": "卫河", "站别": "PP", "行政区": 410721.0, "设站年": 0.0, "集水面": null, "站址": "新乡市新乡县洪门镇洪门村", "经度": 113.9205, "维度": 35.2755, "测站等": null }, "geometry": { "type": "Point", "coordinates": [ 113.9205, 35.2755 ] } },
{ "type": "Feature", "properties": { "备注": null, "编号": 2.0, "站码": 31022050.0, "站名": "汲县", "流域名": null, "水系名": null, "河流名": null, "站别": null, "行政区": 0.0, "设站年": 0.0, "集水面": null, "站址": "新乡市卫辉市城郊乡纸坊村", "经度": 114.0533, "维度": 35.3907, "测站等": null }, "geometry": { "type": "Point", "coordinates": [ 114.0533, 35.3907 ] } },
{ "type": "Feature", "properties": { "备注": null, "编号": 1.0, "站码": 31022051.0, "站名": "耿庄", "流域名": "海河", "水系名": "漳卫南运河", "河流名": "卫河", "站别": "PP", "行政区": 410701.0, "设站年": 0.0, "集水面": null, "站址": "新乡市凤泉区耿黄乡耿庄", "经度": 113.8992, "维度": 35.3844, "测站等": null }, "geometry": { "type": "Point", "coordinates": [ 113.8992, 35.3844 ] } },
{ "type": "Feature", "properties": { "备注": null, "编号": 1.0, "站码": 31022052.0, "站名": "曲里", "流域名": "海河", "水系名": "漳卫南运河", "河流名": "卫河", "站别": "PP", "行政区": 410781.0, "设站年": 201204.0, "集水面": null, "站址": "新乡市卫辉市孙杏村镇曲里", "经度": 113.9476, "维度": 35.3693, "测站等": null }, "geometry": { "type": "Point", "coordinates": [ 113.9476, 35.3693 ] } },
{ "type": "Feature", "properties": { "备注": null, "编号": 1.0, "站码": 31022053.0, "站名": "孙杏村", "流域名": "海河", "水系名": "漳卫南运河", "河流名": "卫河", "站别": "PP", "行政区": 410781.0, "设站年": 0.0, "集水面": null, "站址": "新乡市卫辉市孙杏村镇孙杏村", "经度": 113.9847, "维度": 35.3501, "测站等": null }, "geometry": { "type": "Point", "coordinates": [ 113.9847, 35.3501 ] } },
{ "type": "Feature", "properties": { "备注": null, "编号": 1.0, "站码": 31022054.0, "站名": "虎掌沟", "流域名": "海河", "水系名": "漳卫南运河", "河流名": "卫河", "站别": "PP", "行政区": 410781.0, "设站年": 0.0, "集水面": null, "站址": "新乡市卫辉市太公泉镇乡虎掌沟村", "经度": 113.954722, "维度": 35.495833, "测站等": null }, "geometry": { "type": "Point", "coordinates": [ 113.954722, 35.495833 ] } },
{ "type": "Feature", "properties": { "备注": null, "编号": 1.0, "站码": 31022056.0, "站名": "秦庄", "流域名": "海河", "水系名": "漳卫南运河", "河流名": "卫河", "站别": "PP", "行政区": 410781.0, "设站年": 201204.0, "集水面": null, "站址": "新乡市卫辉市唐庄镇秦庄", "经度": 113.9871, "维度": 35.426, "测站等": null }, "geometry": { "type": "Point", "coordinates": [ 113.9871, 35.426 ] } },
{ "type": "Feature", "properties": { "备注": null, "编号": 1.0, "站码": 31022057.0, "站名": "西柳位", "流域名": "海河", "水系名": "漳卫南运河", "河流名": "卫河", "站别": "PP", "行政区": 410781.0, "设站年": 201204.0, "集水面": null, "站址": "新乡市卫辉市庞寨乡西柳位", "经度": 114.2987, "维度": 35.4358, "测站等": null }, "geometry": { "type": "Point", "coordinates": [ 114.2987, 35.4358 ] } },
{ "type": "Feature", "properties": { "备注": null, "编号": 1.0, "站码": 31022064.0, "站名": "倪湾", "流域名": "海河", "水系名": "漳卫南运河", "河流名": "卫河", "站别": "PP", "行政区": 410781.0, "设站年": 0.0, "集水面": null, "站址": "新乡市卫辉市倪湾乡倪湾村", "经度": 114.1298, "维度": 35.4613, "测站等": null }, "geometry": { "type": "Point", "coordinates": [ 114.1298, 35.4613 ] } },
{ "type": "Feature", "properties": { "备注": null, "编号": 1.0, "站码": 31022065.0, "站名": "李源屯", "流域名": "海河", "水系名": "漳卫南运河", "河流名": "卫河", "站别": "PP", "行政区": 410781.0, "设站年": 0.0, "集水面": null, "站址": "新乡市卫辉市李源屯镇李源屯村", "经度": 114.218, "维度": 35.4207, "测站等": null }, "geometry": { "type": "Point", "coordinates": [ 114.218, 35.4207 ] } },
{ "type": "Feature", "properties": { "备注": null, "编号": 1.0, "站码": 31022075.0, "站名": "张王屯", "流域名": "海河", "水系名": "漳卫南运河", "河流名": "卫河", "站别": "PP", "行政区": 410781.0, "设站年": 201204.0, "集水面": null, "站址": "新乡市卫辉市太公泉镇张王屯", "经度": 114.0009, "维度": 35.4749, "测站等": null }, "geometry": { "type": "Point", "coordinates": [ 114.0009, 35.4749 ] } },
{ "type": "Feature", "properties": { "备注": null, "编号": 1.0, "站码": 31022076.0, "站名": "东良村", "流域名": "海河", "水系名": "漳卫南运河", "河流名": "卫河", "站别": "PP", "行政区": 410781.0, "设站年": 201204.0, "集水面": null, "站址": "新乡市卫辉市李源屯镇东良村", "经度": 114.1818, "维度": 35.3801, "测站等": null }, "geometry": { "type": "Point", "coordinates": [ 114.1818, 35.3801 ] } },
{ "type": "Feature", "properties": { "备注": null, "编号": 2.0, "站码": 31022100.0, "站名": "东陈召", "流域名": "海河流域", "水系名": "南运河", "河流名": "卫河", "站别": "P", "行政区": 0.0, "设站年": 1966.0, "集水面": null, "站址": "河南省卫辉市太公泉乡东陈召村", "经度": 113.59, "维度": 35.32, "测站等": null }, "geometry": { "type": "Point", "coordinates": [ 113.59, 35.32 ] } },
{ "type": "Feature", "properties": { "备注": null, "编号": 2.0, "站码": 31022150.0, "站名": "东拴马", "流域名": "海河流域", "水系名": "南运河", "河流名": "沧河", "站别": "P", "行政区": 0.0, "设站年": 1965.0, "集水面": null, "站址": "河南省卫辉市东拴马乡东拴马村", "经度": 113.56, "维度": 35.4, "测站等": null }, "geometry": { "type": "Point", "coordinates": [ 113.56, 35.4 ] } },
{ "type": "Feature", "properties": { "备注": null, "编号": 2.0, "站码": 31022200.0, "站名": "狮豹头", "流域名": "海河流域", "水系名": "南运河", "河流名": "沧河", "站别": "P", "行政区": 0.0, "设站年": 1956.0, "集水面": null, "站址": "河南省卫辉市狮豹头乡狮豹头水库", "经度": 114.0, "维度": 35.4, "测站等": null }, "geometry": { "type": "Point", "coordinates": [ 114.0, 35.4 ] } },
{ "type": "Feature", "properties": { "备注": null, "编号": 2.0, "站码": 31022250.0, "站名": "塔岗", "流域名": "海河流域", "水系名": "南运河", "河流名": "沧河", "站别": "P", "行政区": 0.0, "设站年": 1959.0, "集水面": null, "站址": "河南省卫辉市狮豹头乡塔岗水库", "经度": 114.04, "维度": 35.35, "测站等": null }, "geometry": { "type": "Point", "coordinates": [ 114.04, 35.35 ] } },
{ "type": "Feature", "properties": { "备注": null, "编号": 1.0, "站码": 31022251.0, "站名": "西拴马", "流域名": "海河", "水系名": "漳卫南运河", "河流名": "卫河", "站别": "PP", "行政区": 410781.0, "设站年": 201204.0, "集水面": null, "站址": "新乡市卫辉市东栓马乡西拴马", "经度": 113.9312, "维度": 35.671, "测站等": null }, "geometry": { "type": "Point", "coordinates": [ 113.9312, 35.671 ] } },
{ "type": "Feature", "properties": { "备注": null, "编号": 1.0, "站码": 31022252.0, "站名": "李家沟", "流域名": "海河", "水系名": "漳卫南运河", "河流名": "卫河", "站别": "PP", "行政区": 410781.0, "设站年": 201204.0, "集水面": null, "站址": "新乡市卫辉市大池山乡李家沟", "经度": 113.904, "维度": 35.6215, "测站等": null }, "geometry": { "type": "Point", "coordinates": [ 113.904, 35.6215 ] } },
{ "type": "Feature", "properties": { "备注": null, "编号": 1.0, "站码": 31022253.0, "站名": "靳庄", "流域名": "海河", "水系名": "漳卫南运河", "河流名": "卫河", "站别": "PP", "行政区": 410781.0, "设站年": 201204.0, "集水面": null, "站址": "新乡市卫辉市大池山乡靳庄", "经度": 113.9591, "维度": 35.6211, "测站等": null }, "geometry": { "type": "Point", "coordinates": [ 113.9591, 35.6211 ] } },
{ "type": "Feature", "properties": { "备注": null, "编号": 1.0, "站码": 31022254.0, "站名": "雪白庄", "流域名": "海河", "水系名": "漳卫南运河", "河流名": "卫河", "站别": "PP", "行政区": 410781.0, "设站年": 201204.0, "集水面": null, "站址": "新乡市卫辉市狮豹头乡雪白庄", "经度": 114.0412, "维度": 35.6529, "测站等": null }, "geometry": { "type": "Point", "coordinates": [ 114.0412, 35.6529 ] } },
{ "type": "Feature", "properties": { "备注": null, "编号": 1.0, "站码": 31022255.0, "站名": "白寺", "流域名": "海河", "水系名": "漳卫南运河", "河流名": "卫河", "站别": "PP", "行政区": 410781.0, "设站年": 201204.0, "集水面": null, "站址": "新乡市卫辉市狮豹头乡白寺", "经度": 114.0211, "维度": 35.6211, "测站等": null }, "geometry": { "type": "Point", "coordinates": [ 114.0211, 35.6211 ] } },
{ "type": "Feature", "properties": { "备注": null, "编号": 1.0, "站码": 31022256.0, "站名": "神头", "流域名": "海河", "水系名": "漳卫南运河", "河流名": "卫河", "站别": "PP", "行政区": 410781.0, "设站年": 201204.0, "集水面": null, "站址": "新乡市卫辉市太公泉镇神头", "经度": 113.9603, "维度": 35.5474, "测站等": null }, "geometry": { "type": "Point", "coordinates": [ 113.9603, 35.5474 ] } },
{ "type": "Feature", "properties": { "备注": null, "编号": 1.0, "站码": 31022257.0, "站名": "黄山", "流域名": "海河", "水系名": "漳卫南运河", "河流名": "卫河", "站别": "PP", "行政区": 410781.0, "设站年": 0.0, "集水面": null, "站址": "新乡市卫辉市太公泉镇乡黄山村", "经度": 114.017222, "维度": 35.548056, "测站等": null }, "geometry": { "type": "Point", "coordinates": [ 114.017222, 35.548056 ] } },
{ "type": "Feature", "properties": { "备注": null, "编号": 1.0, "站码": 31022258.0, "站名": "大谷驼", "流域名": "海河", "水系名": "漳卫南运河", "河流名": "卫河", "站别": "PP", "行政区": 410781.0, "设站年": 201204.0, "集水面": null, "站址": "新乡市卫辉市安都乡大谷驼", "经度": 114.0648, "维度": 35.5192, "测站等": null }, "geometry": { "type": "Point", "coordinates": [ 114.0648, 35.5192 ] } },
{ "type": "Feature", "properties": { "备注": null, "编号": 1.0, "站码": 31022259.0, "站名": "猴头脑", "流域名": "海河", "水系名": "漳卫南运河", "河流名": "卫河", "站别": "PP", "行政区": 410781.0, "设站年": 201204.0, "集水面": null, "站址": "新乡市卫辉市大池山乡猴头脑", "经度": 113.9263, "维度": 35.5975, "测站等": null }, "geometry": { "type": "Point", "coordinates": [ 113.9263, 35.5975 ] } },
{ "type": "Feature", "properties": { "备注": null, "编号": 1.0, "站码": 31022260.0, "站名": "顿坊店", "流域名": "海河", "水系名": "漳卫南运河", "河流名": "香泉河", "站别": "PP", "行政区": 410781.0, "设站年": 0.0, "集水面": null, "站址": "卫辉市顿坊店乡", "经度": 114.144, "维度": 35.4069, "测站等": null }, "geometry": { "type": "Point", "coordinates": [ 114.144, 35.4069 ] } },
{ "type": "Feature", "properties": { "备注": null, "编号": 1.0, "站码": 31022300.0, "站名": "前嘴", "流域名": "海河", "水系名": "漳卫南运河", "河流名": "思德河", "站别": "PP", "行政区": 410622.0, "设站年": 0.0, "集水面": null, "站址": "鹤壁市淇县黄洞乡前嘴", "经度": 114.11626, "维度": 35.72051, "测站等": null }, "geometry": { "type": "Point", "coordinates": [ 114.11626, 35.72051 ] } },
{ "type": "Feature", "properties": { "备注": null, "编号": 2.0, "站码": 31022350.0, "站名": "赵庄", "流域名": "海河流域", "水系名": "南运河", "河流名": "思德河", "站别": null, "行政区": 0.0, "设站年": 1976.0, "集水面": null, "站址": "河南省淇县桥盟乡赵庄", "经度": 114.06, "维度": 35.4, "测站等": null }, "geometry": { "type": "Point", "coordinates": [ 114.06, 35.4 ] } },
{ "type": "Feature", "properties": { "备注": null, "编号": 1.0, "站码": 31022400.0, "站名": "朝歌", "流域名": "海河", "水系名": "漳卫南运河", "河流名": "思德河", "站别": "PP", "行政区": 410622.0, "设站年": 195101.0, "集水面": null, "站址": "淇县城关镇", "经度": 114.2, "维度": 35.6, "测站等": null }, "geometry": { "type": "Point", "coordinates": [ 114.2, 35.6 ] } },
{ "type": "Feature", "properties": { "备注": null, "编号": 1.0, "站码": 31022401.0, "站名": "北山门口", "流域名": "海河", "水系名": "漳卫南运河", "河流名": "思德河", "站别": "PP", "行政区": 410622.0, "设站年": 201204.0, "集水面": null, "站址": "鹤壁市淇县北阳乡北山门口村", "经度": 114.10393, "维度": 35.59597, "测站等": null }, "geometry": { "type": "Point", "coordinates": [ 114.10393, 35.59597 ] } },
{ "type": "Feature", "properties": { "备注": null, "编号": 1.0, "站码": 31022402.0, "站名": "大水头", "流域名": "海河", "水系名": "漳卫南运河", "河流名": "思德河", "站别": "PP", "行政区": 410622.0, "设站年": 201204.0, "集水面": null, "站址": "鹤壁市淇县北阳乡大水头村", "经度": 114.09314, "维度": 35.64125, "测站等": null }, "geometry": { "type": "Point", "coordinates": [ 114.09314, 35.64125 ] } },
{ "type": "Feature", "properties": { "备注": null, "编号": 1.0, "站码": 31022403.0, "站名": "石老公", "流域名": "海河", "水系名": "漳卫南运河", "河流名": "思德河", "站别": "PP", "行政区": 410622.0, "设站年": 201204.0, "集水面": null, "站址": "鹤壁市淇县黄洞乡石老公学校", "经度": 114.07723, "维度": 35.70354, "测站等": null }, "geometry": { "type": "Point", "coordinates": [ 114.07723, 35.70354 ] } },
{ "type": "Feature", "properties": { "备注": null, "编号": 1.0, "站码": 31022404.0, "站名": "纣王殿", "流域名": "海河", "水系名": "漳卫南运河", "河流名": "思德河", "站别": "PP", "行政区": 410622.0, "设站年": 201204.0, "集水面": null, "站址": "鹤壁市淇县黄洞乡纣王店村", "经度": 114.0059, "维度": 35.7106, "测站等": null }, "geometry": { "type": "Point", "coordinates": [ 114.0059, 35.7106 ] } },
{ "type": "Feature", "properties": { "备注": null, "编号": 1.0, "站码": 31022405.0, "站名": "黄洞", "流域名": "海河", "水系名": "漳卫南运河", "河流名": "思德河", "站别": "PP", "行政区": 410622.0, "设站年": 201204.0, "集水面": null, "站址": "鹤壁市淇县黄洞乡黄洞村", "经度": 114.0936, "维度": 35.73215, "测站等": null }, "geometry": { "type": "Point", "coordinates": [ 114.0936, 35.73215 ] } },
{ "type": "Feature", "properties": { "备注": null, "编号": 1.0, "站码": 31022406.0, "站名": "全寨", "流域名": "海河", "水系名": "漳卫南运河", "河流名": "淇河", "站别": "PP", "行政区": 410622.0, "设站年": 201204.0, "集水面": null, "站址": "鹤壁市淇县黄洞乡全寨村", "经度": 114.08875, "维度": 35.77346, "测站等": null }, "geometry": { "type": "Point", "coordinates": [ 114.08875, 35.77346 ] } },
{ "type": "Feature", "properties": { "备注": null, "编号": 1.0, "站码": 31022407.0, "站名": "小柏峪", "流域名": "海河", "水系名": "漳卫南运河", "河流名": "淇河", "站别": "PP", "行政区": 410622.0, "设站年": 201204.0, "集水面": null, "站址": "鹤壁市淇县黄洞乡小柏峪村", "经度": 114.12231, "维度": 35.79381, "测站等": null }, "geometry": { "type": "Point", "coordinates": [ 114.12231, 35.79381 ] } },
{ "type": "Feature", "properties": { "备注": null, "编号": 1.0, "站码": 31022408.0, "站名": "小岩村", "流域名": "海河", "水系名": "漳卫南运河", "河流名": "淇河", "站别": "PP", "行政区": 410622.0, "设站年": 201204.0, "集水面": null, "站址": "鹤壁市淇县庙口镇小岩沟村", "经度": 114.15501, "维度": 35.76053, "测站等": null }, "geometry": { "type": "Point", "coordinates": [ 114.15501, 35.76053 ] } },
{ "type": "Feature", "properties": { "备注": null, "编号": 1.0, "站码": 31022409.0, "站名": "河口", "流域名": "海河", "水系名": "漳卫南运河", "河流名": "淇河", "站别": "PP", "行政区": 410622.0, "设站年": 201204.0, "集水面": null, "站址": "鹤壁市淇县西岗镇河口村", "经度": 114.26351, "维度": 35.61419, "测站等": null }, "geometry": { "type": "Point", "coordinates": [ 114.26351, 35.61419 ] } },
{ "type": "Feature", "properties": { "备注": null, "编号": 1.0, "站码": 31022410.0, "站名": "大花庄", "流域名": "海河", "水系名": "漳卫南运河", "河流名": "淇河", "站别": "PP", "行政区": 410622.0, "设站年": 201204.0, "集水面": null, "站址": "鹤壁市淇县高村镇大花庄", "经度": 114.20879, "维度": 35.71918, "测站等": null }, "geometry": { "type": "Point", "coordinates": [ 114.20879, 35.71918 ] } },
{ "type": "Feature", "properties": { "备注": null, "编号": 1.0, "站码": 31022411.0, "站名": "赵庄", "流域名": "海河", "水系名": "漳卫南运河", "河流名": "思德河", "站别": "PP", "行政区": 410622.0, "设站年": 201204.0, "集水面": null, "站址": "鹤壁市淇县桥盟乡赵庄村", "经度": 114.09757, "维度": 35.66837, "测站等": null }, "geometry": { "type": "Point", "coordinates": [ 114.09757, 35.66837 ] } },
{ "type": "Feature", "properties": { "备注": null, "编号": 1.0, "站码": 31022412.0, "站名": "新乡屯", "流域名": "海河", "水系名": "漳卫南运河", "河流名": "淇河", "站别": "PP", "行政区": 410622.0, "设站年": 0.0, "集水面": null, "站址": "鹤壁市淇县高村镇新乡屯村", "经度": 114.2238, "维度": 35.7008, "测站等": null }, "geometry": { "type": "Point", "coordinates": [ 114.2238, 35.7008 ] } },
{ "type": "Feature", "properties": { "备注": null, "编号": 1.0, "站码": 31022413.0, "站名": "黑龙庄", "流域名": "海河", "水系名": "漳卫南运河", "河流名": "思德河", "站别": "PP", "行政区": 410622.0, "设站年": 0.0, "集水面": null, "站址": "鹤壁市淇县桥盟乡黑龙庄村", "经度": 114.1712, "维度": 35.6496, "测站等": null }, "geometry": { "type": "Point", "coordinates": [ 114.1712, 35.6496 ] } },
{ "type": "Feature", "properties": { "备注": null, "编号": 1.0, "站码": 31022414.0, "站名": "南宋庄", "流域名": "海河", "水系名": "漳卫南运河", "河流名": "沧河", "站别": "PP", "行政区": 410622.0, "设站年": 0.0, "集水面": null, "站址": "鹤壁市淇县北阳镇南宋庄村", "经度": 114.1297, "维度": 35.5512, "测站等": null }, "geometry": { "type": "Point", "coordinates": [ 114.1297, 35.5512 ] } },
{ "type": "Feature", "properties": { "备注": null, "编号": 1.0, "站码": 31022415.0, "站名": "黄堆", "流域名": "海河", "水系名": "漳卫南运河", "河流名": "思德河", "站别": "PP", "行政区": 410622.0, "设站年": 0.0, "集水面": null, "站址": "鹤壁市淇县北阳镇黄堆村", "经度": 114.1873, "维度": 35.547, "测站等": null }, "geometry": { "type": "Point", "coordinates": [ 114.1873, 35.547 ] } },
{ "type": "Feature", "properties": { "备注": null, "编号": 1.0, "站码": 31022416.0, "站名": "城李庄", "流域名": "海河", "水系名": "漳卫南运河", "河流名": "淇河", "站别": "PP", "行政区": 410622.0, "设站年": 0.0, "集水面": null, "站址": "鹤壁市淇县西岗乡城李庄村", "经度": 114.2354, "维度": 35.5614, "测站等": null }, "geometry": { "type": "Point", "coordinates": [ 114.2354, 35.5614 ] } },
{ "type": "Feature", "properties": { "备注": null, "编号": 1.0, "站码": 31022417.0, "站名": "西岗乡", "流域名": "海河", "水系名": "漳卫南运河", "河流名": "淇河", "站别": "PP", "行政区": 410622.0, "设站年": 0.0, "集水面": null, "站址": "鹤壁市淇县西岗乡", "经度": 114.2937, "维度": 35.6048, "测站等": null }, "geometry": { "type": "Point", "coordinates": [ 114.2937, 35.6048 ] } },
{ "type": "Feature", "properties": { "备注": null, "编号": 1.0, "站码": 31022418.0, "站名": "申寨", "流域名": "海河", "水系名": "漳卫南运河", "河流名": "淇河", "站别": "PP", "行政区": 410621.0, "设站年": 0.0, "集水面": null, "站址": "鹤壁市浚县锯桥镇申寨村", "经度": 114.2786, "维度": 35.6753, "测站等": null }, "geometry": { "type": "Point", "coordinates": [ 114.2786, 35.6753 ] } },
{ "type": "Feature", "properties": { "备注": null, "编号": 1.0, "站码": 31022630.0, "站名": "六泉(黄松背)", "流域名": "海河", "水系名": "漳卫南运河", "河流名": "淇河", "站别": "PP", "行政区": 140524.0, "设站年": 0.0, "集水面": null, "站址": "山西省晋城市陵川县六泉乡", "经度": 113.423, "维度": 35.778, "测站等": null }, "geometry": { "type": "Point", "coordinates": [ 113.423, 35.778 ] } },
{ "type": "Feature", "properties": { "备注": null, "编号": 1.0, "站码": 31022750.0, "站名": "鹅屋", "流域名": "海河", "水系名": "漳卫南运河", "河流名": "卫河", "站别": "PP", "行政区": 410781.0, "设站年": 0.0, "集水面": null, "站址": "山西省壶关县鹅屋乡黄崖底村", "经度": 113.55, "维度": 35.883333, "测站等": null }, "geometry": { "type": "Point", "coordinates": [ 113.55, 35.883333 ] } },
{ "type": "Feature", "properties": { "备注": null, "编号": 1.0, "站码": 31022800.0, "站名": "口上", "流域名": "海河", "水系名": "漳卫南运河", "河流名": "淇河", "站别": "PP", "行政区": 410581.0, "设站年": 0.0, "集水面": null, "站址": "安阳市林州市原康镇口上村", "经度": 113.667, "维度": 35.8667, "测站等": null }, "geometry": { "type": "Point", "coordinates": [ 113.667, 35.8667 ] } },
{ "type": "Feature", "properties": { "备注": null, "编号": 1.0, "站码": 31022850.0, "站名": "南寨", "流域名": "海河", "水系名": "漳卫南运河", "河流名": "淇河", "站别": "PP", "行政区": 410782.0, "设站年": 195401.0, "集水面": null, "站址": "新乡市辉县市南寨镇南寨村", "经度": 113.667499, "维度": 35.8, "测站等": null }, "geometry": { "type": "Point", "coordinates": [ 113.667499, 35.8 ] } },
{ "type": "Feature", "properties": { "备注": null, "编号": 1.0, "站码": 31022855.0, "站名": "后庄", "流域名": "海河", "水系名": "漳卫南运河", "河流名": "共产主义渠", "站别": "PP", "行政区": 410782.0, "设站年": 0.0, "集水面": null, "站址": "辉县市沙窑乡新庄村", "经度": 113.667, "维度": 35.7167, "测站等": null }, "geometry": { "type": "Point", "coordinates": [ 113.667, 35.7167 ] } },
{ "type": "Feature", "properties": { "备注": null, "编号": 1.0, "站码": 31022871.0, "站名": "齐王寨", "流域名": "海河", "水系名": "漳卫南运河", "河流名": "淇河", "站别": "PP", "行政区": 410782.0, "设站年": 201204.0, "集水面": null, "站址": "新乡市辉县市三郊口乡齐王寨", "经度": 113.5959, "维度": 35.8126, "测站等": null }, "geometry": { "type": "Point", "coordinates": [ 113.5959, 35.8126 ] } },
{ "type": "Feature", "properties": { "备注": null, "编号": 1.0, "站码": 31022872.0, "站名": "秋沟", "流域名": "海河", "水系名": "漳卫南运河", "河流名": "淇河", "站别": "PP", "行政区": 410782.0, "设站年": 201204.0, "集水面": null, "站址": "新乡市辉县市三郊口乡秋沟", "经度": 113.6455, "维度": 35.8222, "测站等": null }, "geometry": { "type": "Point", "coordinates": [ 113.6455, 35.8222 ] } },
{ "type": "Feature", "properties": { "备注": null, "编号": 1.0, "站码": 31022873.0, "站名": "北岸泉", "流域名": "海河", "水系名": "漳卫南运河", "河流名": "淇河", "站别": "PP", "行政区": 410782.0, "设站年": 201204.0, "集水面": null, "站址": "新乡市辉县市南寨镇北岸泉", "经度": 113.7132, "维度": 35.8161, "测站等": null }, "geometry": { "type": "Point", "coordinates": [ 113.7132, 35.8161 ] } },
{ "type": "Feature", "properties": { "备注": null, "编号": 1.0, "站码": 31022874.0, "站名": "坝前", "流域名": "海河", "水系名": "漳卫南运河", "河流名": "淇河", "站别": "PP", "行政区": 410782.0, "设站年": 201204.0, "集水面": null, "站址": "新乡市辉县市南寨镇坝前", "经度": 113.7223, "维度": 35.7845, "测站等": null }, "geometry": { "type": "Point", "coordinates": [ 113.7223, 35.7845 ] } },
{ "type": "Feature", "properties": { "备注": null, "编号": 1.0, "站码": 31022900.0, "站名": "要街", "流域名": "海河", "水系名": "漳卫南运河", "河流名": "淇河", "站别": "PP", "行政区": 410782.0, "设站年": 195901.0, "集水面": null, "站址": "新乡市辉县市西平罗乡要街水库", "经度": 113.75, "维度": 35.766944, "测站等": null }, "geometry": { "type": "Point", "coordinates": [ 113.75, 35.766944 ] } },
{ "type": "Feature", "properties": { "备注": null, "编号": 1.0, "站码": 31022910.0, "站名": "南坪", "流域名": "海河", "水系名": "漳卫南运河", "河流名": "石门河", "站别": "PP", "行政区": 410782.0, "设站年": 0.0, "集水面": null, "站址": "辉县市沙窑乡南坪村", "经度": 113.609, "维度": 35.7066, "测站等": null }, "geometry": { "type": "Point", "coordinates": [ 113.609, 35.7066 ] } },
{ "type": "Feature", "properties": { "备注": null, "编号": 1.0, "站码": 31022911.0, "站名": "沙窑", "流域名": "海河", "水系名": "漳卫南运河", "河流名": "淇河", "站别": "PP", "行政区": 410782.0, "设站年": 201204.0, "集水面": null, "站址": "新乡市辉县市沙窑乡沙窑", "经度": 113.6332, "维度": 35.7342, "测站等": null }, "geometry": { "type": "Point", "coordinates": [ 113.6332, 35.7342 ] } },
{ "type": "Feature", "properties": { "备注": null, "编号": 1.0, "站码": 31022912.0, "站名": "南窑", "流域名": "海河", "水系名": "漳卫南运河", "河流名": "淇河", "站别": "PP", "行政区": 410782.0, "设站年": 201204.0, "集水面": null, "站址": "新乡市辉县市沙窑乡南窑", "经度": 113.6125, "维度": 35.759, "测站等": null }, "geometry": { "type": "Point", "coordinates": [ 113.6125, 35.759 ] } },
{ "type": "Feature", "properties": { "备注": null, "编号": 1.0, "站码": 31022913.0, "站名": "郭亮水库", "流域名": "海河", "水系名": "漳卫南运河", "河流名": "黄水河", "站别": "PP", "行政区": 410782.0, "设站年": 201204.0, "集水面": null, "站址": "新乡市辉县市沙窑乡郭亮水库", "经度": 113.5914, "维度": 35.7351, "测站等": null }, "geometry": { "type": "Point", "coordinates": [ 113.5914, 35.7351 ] } },
{ "type": "Feature", "properties": { "备注": null, "编号": 1.0, "站码": 31022930.0, "站名": "西沙岗", "流域名": "海河", "水系名": "漳卫南运河", "河流名": "香木河", "站别": "PP", "行政区": 410782.0, "设站年": 0.0, "集水面": null, "站址": "辉县市西平罗乡西沙岗村", "经度": 113.735, "维度": 35.7152, "测站等": null }, "geometry": { "type": "Point", "coordinates": [ 113.735, 35.7152 ] } },
{ "type": "Feature", "properties": { "备注": null, "编号": 1.0, "站码": 31022931.0, "站名": "山怀", "流域名": "海河", "水系名": "漳卫南运河", "河流名": "淇河", "站别": "PP", "行政区": 410782.0, "设站年": 201204.0, "集水面": null, "站址": "新乡市辉县市西平罗乡山怀", "经度": 113.7152, "维度": 35.7331, "测站等": null }, "geometry": { "type": "Point", "coordinates": [ 113.7152, 35.7331 ] } },
{ "type": "Feature", "properties": { "备注": null, "编号": 1.0, "站码": 31022932.0, "站名": "莲花水库", "流域名": "海河", "水系名": "漳卫南运河", "河流名": "淇河", "站别": "PP", "行政区": 410782.0, "设站年": 201204.0, "集水面": null, "站址": "新乡市辉县市西平罗乡莲花水库", "经度": 113.7761, "维度": 35.726, "测站等": null }, "geometry": { "type": "Point", "coordinates": [ 113.7761, 35.726 ] } },
{ "type": "Feature", "properties": { "备注": null, "编号": 1.0, "站码": 31022940.0, "站名": "韩口", "流域名": "海河", "水系名": "漳卫南运河", "河流名": "香木河", "站别": "PP", "行政区": 410782.0, "设站年": 0.0, "集水面": null, "站址": "辉县市黄水乡韩口村", "经度": 113.65, "维度": 35.6681, "测站等": null }, "geometry": { "type": "Point", "coordinates": [ 113.65, 35.6681 ] } },
{ "type": "Feature", "properties": { "备注": null, "编号": 1.0, "站码": 31022950.0, "站名": "临淇", "流域名": "海河", "水系名": "漳卫南运河", "河流名": "淇河", "站别": "PP", "行政区": 410581.0, "设站年": 195101.0, "集水面": null, "站址": "安阳市林州市临淇镇", "经度": 113.882777, "维度": 35.767499, "测站等": null }, "geometry": { "type": "Point", "coordinates": [ 113.882777, 35.767499 ] } },
{ "type": "Feature", "properties": { "备注": null, "编号": 1.0, "站码": 31022951.0, "站名": "泽下", "流域名": "海河", "水系名": "漳卫南运河", "河流名": "淇河", "站别": "PP", "行政区": 410581.0, "设站年": 201204.0, "集水面": null, "站址": "安阳市林州市五龙镇陈家岗村", "经度": 113.93741, "维度": 35.77782, "测站等": null }, "geometry": { "type": "Point", "coordinates": [ 113.93741, 35.77782 ] } },
{ "type": "Feature", "properties": { "备注": null, "编号": 1.0, "站码": 31022952.0, "站名": "七峪", "流域名": "海河", "水系名": "漳卫南运河", "河流名": "淇河", "站别": "PP", "行政区": 410581.0, "设站年": 201204.0, "集水面": null, "站址": "安阳市林州市五龙镇七峪村", "经度": 114.00031, "维度": 35.76212, "测站等": null }, "geometry": { "type": "Point", "coordinates": [ 114.00031, 35.76212 ] } },
{ "type": "Feature", "properties": { "备注": null, "编号": 1.0, "站码": 31022953.0, "站名": "白泉", "流域名": "海河", "水系名": "漳卫南运河", "河流名": "淇河", "站别": "PP", "行政区": 410581.0, "设站年": 201204.0, "集水面": null, "站址": "安阳市林州市临淇镇白泉村", "经度": 113.90373, "维度": 35.71739, "测站等": null }, "geometry": { "type": "Point", "coordinates": [ 113.90373, 35.71739 ] } },
{ "type": "Feature", "properties": { "备注": null, "编号": 1.0, "站码": 31022954.0, "站名": "黄洛池", "流域名": "海河", "水系名": "漳卫南运河", "河流名": "淇河", "站别": "PP", "行政区": 410581.0, "设站年": 201204.0, "集水面": null, "站址": "安阳市林州市临淇镇黄落池村", "经度": 113.81173, "维度": 35.69625, "测站等": null }, "geometry": { "type": "Point", "coordinates": [ 113.81173, 35.69625 ] } },
{ "type": "Feature", "properties": { "备注": null, "编号": 1.0, "站码": 31023000.0, "站名": "大峪", "流域名": "海河", "水系名": "漳卫南运河", "河流名": "淅河", "站别": "PP", "行政区": 410581.0, "设站年": 0.0, "集水面": null, "站址": "安阳市林州市茶店乡大峪村", "经度": 113.762, "维度": 35.8652, "测站等": null }, "geometry": { "type": "Point", "coordinates": [ 113.762, 35.8652 ] } },
{ "type": "Feature", "properties": { "备注": null, "编号": 1.0, "站码": 31023001.0, "站名": "南沟", "流域名": "海河", "水系名": "漳卫南运河", "河流名": "淅河", "站别": "PP", "行政区": 410581.0, "设站年": 201204.0, "集水面": null, "站址": "安阳市林州市原康镇南沟村委会对面胡同50米左转", "经度": 113.73033, "维度": 35.8993, "测站等": null }, "geometry": { "type": "Point", "coordinates": [ 113.73033, 35.8993 ] } },
{ "type": "Feature", "properties": { "备注": null, "编号": 1.0, "站码": 31023050.0, "站名": "茶店", "流域名": "海河", "水系名": "漳卫南运河", "河流名": "淇河", "站别": "PP", "行政区": 410581.0, "设站年": 0.0, "集水面": null, "站址": "安阳市林州市茶店乡西峪村", "经度": 113.817, "维度": 35.8333, "测站等": null }, "geometry": { "type": "Point", "coordinates": [ 113.817, 35.8333 ] } },
{ "type": "Feature", "properties": { "备注": null, "编号": 1.0, "站码": 31023051.0, "站名": "郭家屯", "流域名": "海河", "水系名": "漳卫南运河", "河流名": "淇河", "站别": "PP", "行政区": 410581.0, "设站年": 201204.0, "集水面": null, "站址": "安阳市林州市临淇镇关也庙村", "经度": 113.87091, "维度": 35.81877, "测站等": null }, "geometry": { "type": "Point", "coordinates": [ 113.87091, 35.81877 ] } },
{ "type": "Feature", "properties": { "备注": null, "编号": 1.0, "站码": 31023052.0, "站名": "李家寨", "流域名": "海河", "水系名": "漳卫南运河", "河流名": "淇河", "站别": "PP", "行政区": 410581.0, "设站年": 201204.0, "集水面": null, "站址": "安阳市林州市临淇镇李家寨村", "经度": 113.8124, "维度": 35.77875, "测站等": null }, "geometry": { "type": "Point", "coordinates": [ 113.8124, 35.77875 ] } },
{ "type": "Feature", "properties": { "备注": null, "编号": 1.0, "站码": 31023150.0, "站名": "马家庄", "流域名": "海河", "水系名": "漳卫南运河", "河流名": "淅河", "站别": "PP", "行政区": 140427.0, "设站年": 0.0, "集水面": null, "站址": "山西省长治市壶关县树掌镇马家庄", "经度": 113.406944, "维度": 35.948055, "测站等": null }, "geometry": { "type": "Point", "coordinates": [ 113.406944, 35.948055 ] } },
{ "type": "Feature", "properties": { "备注": null, "编号": 1.0, "站码": 31023250.0, "站名": "桥上", "流域名": "海河", "水系名": "漳卫南运河", "河流名": "淅河", "站别": "PP", "行政区": 410581.0, "设站年": 195301.0, "集水面": null, "站址": "山西省长治市壶关县桥上乡桥上村", "经度": 113.569999, "维度": 35.921944, "测站等": null }, "geometry": { "type": "Point", "coordinates": [ 113.569999, 35.921944 ] } },
{ "type": "Feature", "properties": { "备注": null, "编号": 1.0, "站码": 31023301.0, "站名": "牛窑沟", "流域名": "海河", "水系名": "漳卫南运河", "河流名": "淅河", "站别": "PP", "行政区": 410581.0, "设站年": 201204.0, "集水面": null, "站址": "安阳市林州市原康镇牛窑沟村", "经度": 113.70247, "维度": 35.92758, "测站等": null }, "geometry": { "type": "Point", "coordinates": [ 113.70247, 35.92758 ] } },
{ "type": "Feature", "properties": { "备注": null, "编号": 1.0, "站码": 31023302.0, "站名": "石板沟", "流域名": "海河", "水系名": "漳卫南运河", "河流名": "淅河", "站别": "PP", "行政区": 410581.0, "设站年": 201204.0, "集水面": null, "站址": "安阳市林州市合涧镇石板沟村", "经度": 113.64743, "维度": 35.99139, "测站等": null }, "geometry": { "type": "Point", "coordinates": [ 113.64743, 35.99139 ] } },
{ "type": "Feature", "properties": { "备注": null, "编号": 1.0, "站码": 31023400.0, "站名": "小店", "流域名": "海河", "水系名": "漳卫南运河", "河流名": "淅河", "站别": "PP", "行政区": 410581.0, "设站年": 0.0, "集水面": null, "站址": "安阳市林州市桂林镇七泉村", "经度": 113.839, "维度": 35.909, "测站等": null }, "geometry": { "type": "Point", "coordinates": [ 113.839, 35.909 ] } },
{ "type": "Feature", "properties": { "备注": null, "编号": 1.0, "站码": 31023401.0, "站名": "兴泉", "流域名": "海河", "水系名": "漳卫南运河", "河流名": "淅河", "站别": "PP", "行政区": 410581.0, "设站年": 201204.0, "集水面": null, "站址": "安阳市林州市桂林镇兴泉村", "经度": 113.90072, "维度": 35.89068, "测站等": null }, "geometry": { "type": "Point", "coordinates": [ 113.90072, 35.89068 ] } },
{ "type": "Feature", "properties": { "备注": null, "编号": 2.0, "站码": 31023550.0, "站名": "盘石头", "流域名": null, "水系名": null, "河流名": null, "站别": null, "行政区": 0.0, "设站年": 0.0, "集水面": null, "站址": "河南省鹤壁市大河涧乡弓家庄", "经度": 114.1281, "维度": 35.83131, "测站等": null }, "geometry": { "type": "Point", "coordinates": [ 114.1281, 35.83131 ] } },
{ "type": "Feature", "properties": { "备注": null, "编号": 1.0, "站码": 31023600.0, "站名": "大柏峪", "流域名": "海河", "水系名": "漳卫南运河", "河流名": "淇河", "站别": "PP", "行政区": 410622.0, "设站年": 0.0, "集水面": null, "站址": "鹤壁市淇县黄洞乡大柏峪", "经度": 114.10249, "维度": 35.79303, "测站等": null }, "geometry": { "type": "Point", "coordinates": [ 114.10249, 35.79303 ] } },
{ "type": "Feature", "properties": { "备注": null, "编号": 2.0, "站码": 31023650.0, "站名": "新村", "流域名": null, "水系名": null, "河流名": null, "站别": null, "行政区": 0.0, "设站年": 0.0, "集水面": null, "站址": "淇滨区庞村镇新村", "经度": 114.2372, "维度": 35.7567, "测站等": null }, "geometry": { "type": "Point", "coordinates": [ 114.2372, 35.7567 ] } },
{ "type": "Feature", "properties": { "备注": null, "编号": 1.0, "站码": 31023651.0, "站名": "安乐洞", "流域名": "海河", "水系名": "漳卫南运河", "河流名": "淇河", "站别": "PP", "行政区": 410611.0, "设站年": 0.0, "集水面": null, "站址": "鹤壁市淇滨区上峪乡安乐洞村", "经度": 114.16094, "维度": 35.8245, "测站等": null }, "geometry": { "type": "Point", "coordinates": [ 114.16094, 35.8245 ] } },
{ "type": "Feature", "properties": { "备注": null, "编号": 1.0, "站码": 31023652.0, "站名": "太极图（南山）", "流域名": "海河", "水系名": "漳卫南运河", "河流名": "淇河", "站别": "PP", "行政区": 410611.0, "设站年": 201204.0, "集水面": null, "站址": "鹤壁市淇滨区上峪乡南山村", "经度": 114.15421, "维度": 35.81098, "测站等": null }, "geometry": { "type": "Point", "coordinates": [ 114.15421, 35.81098 ] } },
{ "type": "Feature", "properties": { "备注": null, "编号": 2.0, "站码": 31023700.0, "站名": "淇门", "流域名": null, "水系名": null, "河流名": null, "站别": null, "行政区": 0.0, "设站年": 0.0, "集水面": null, "站址": "浚县新镇镇李庄村", "经度": 114.2372, "维度": 35.7567, "测站等": null }, "geometry": { "type": "Point", "coordinates": [ 114.2372, 35.7567 ] } },
{ "type": "Feature", "properties": { "备注": null, "编号": 1.0, "站码": 31023800.0, "站名": "东申寨", "流域名": "海河", "水系名": "漳卫南运河", "河流名": "西柳清河", "站别": "PP", "行政区": 410526.0, "设站年": 0.0, "集水面": null, "站址": "安阳市滑县王庄乡东申寨村", "经度": 114.43999, "维度": 35.4343, "测站等": null }, "geometry": { "type": "Point", "coordinates": [ 114.43999, 35.4343 ] } },
{ "type": "Feature", "properties": { "备注": null, "编号": 1.0, "站码": 31023801.0, "站名": "柴郎柳", "流域名": "黄河", "水系名": "黄河", "河流名": "城关河", "站别": "PP", "行政区": 410527.0, "设站年": 0.0, "集水面": null, "站址": "安阳市滑县王庄镇柴郎柳村", "经度": 114.49051, "维度": 35.45762, "测站等": null }, "geometry": { "type": "Point", "coordinates": [ 114.49051, 35.45762 ] } },
{ "type": "Feature", "properties": { "备注": null, "编号": 1.0, "站码": 31023803.0, "站名": "大林头村", "流域名": "黄河", "水系名": "黄河", "河流名": "文革河", "站别": "PP", "行政区": 410526.0, "设站年": 0.0, "集水面": null, "站址": "安阳市滑县老店乡大林头村", "经度": 114.5571, "维度": 35.5097, "测站等": null }, "geometry": { "type": "Point", "coordinates": [ 114.5571, 35.5097 ] } },
{ "type": "Feature", "properties": { "备注": null, "编号": 1.0, "站码": 31023950.0, "站名": "白寺", "流域名": "海河", "水系名": "漳卫南运河", "河流名": "卫河", "站别": "PP", "行政区": 410621.0, "设站年": 0.0, "集水面": null, "站址": "鹤壁市浚县白寺乡邮政所", "经度": 114.42866, "维度": 35.684, "测站等": null }, "geometry": { "type": "Point", "coordinates": [ 114.42866, 35.684 ] } },
{ "type": "Feature", "properties": { "备注": null, "编号": 1.0, "站码": 31024000.0, "站名": "北王庄", "流域名": "海河", "水系名": "漳卫南运河", "河流名": "卫河", "站别": "PP", "行政区": 410621.0, "设站年": 0.0, "集水面": null, "站址": "浚县王庄乡北王庄村北300米", "经度": 114.59, "维度": 35.79, "测站等": null }, "geometry": { "type": "Point", "coordinates": [ 114.59, 35.79 ] } },
{ "type": "Feature", "properties": { "备注": null, "编号": 1.0, "站码": 31024001.0, "站名": "夏庄", "流域名": "海河", "水系名": "漳卫南运河", "河流名": "卫河", "站别": "PP", "行政区": 410621.0, "设站年": 201204.0, "集水面": null, "站址": "鹤壁市浚县屯子镇夏庄村", "经度": 114.41055, "维度": 35.74631, "测站等": null }, "geometry": { "type": "Point", "coordinates": [ 114.41055, 35.74631 ] } },
{ "type": "Feature", "properties": { "备注": null, "编号": 1.0, "站码": 31024002.0, "站名": "马庄", "流域名": "海河", "水系名": "漳卫南运河", "河流名": "卫河", "站别": "PP", "行政区": 410621.0, "设站年": 201204.0, "集水面": null, "站址": "鹤壁市浚县白寺乡马庄村", "经度": 114.365, "维度": 35.65518, "测站等": null }, "geometry": { "type": "Point", "coordinates": [ 114.365, 35.65518 ] } },
{ "type": "Feature", "properties": { "备注": null, "编号": 1.0, "站码": 31024003.0, "站名": "黄辛庄", "流域名": "海河", "水系名": "漳卫南运河", "河流名": "卫河", "站别": "PP", "行政区": 410621.0, "设站年": 201204.0, "集水面": null, "站址": "鹤壁市浚县善堂镇黄辛庄村", "经度": 114.62877, "维度": 35.72409, "测站等": null }, "geometry": { "type": "Point", "coordinates": [ 114.62877, 35.72409 ] } },
{ "type": "Feature", "properties": { "备注": null, "编号": 1.0, "站码": 31024007.0, "站名": "屯子", "流域名": "海河", "水系名": "漳卫南运河", "河流名": "共产主义渠", "站别": "PP", "行政区": 410621.0, "设站年": 0.0, "集水面": null, "站址": "鹤壁市浚县屯子乡屯子", "经度": 114.483333, "维度": 35.766666, "测站等": null }, "geometry": { "type": "Point", "coordinates": [ 114.483333, 35.766666 ] } },
{ "type": "Feature", "properties": { "备注": null, "编号": 1.0, "站码": 31024011.0, "站名": "胡庄", "流域名": "海河", "水系名": "漳卫南运河", "河流名": "民丰沟", "站别": "PP", "行政区": 410621.0, "设站年": 0.0, "集水面": null, "站址": "鹤壁市浚县白寺乡胡庄村", "经度": 114.4308, "维度": 35.644, "测站等": null }, "geometry": { "type": "Point", "coordinates": [ 114.4308, 35.644 ] } },
{ "type": "Feature", "properties": { "备注": null, "编号": 1.0, "站码": 31024012.0, "站名": "前同山", "流域名": "海河", "水系名": "漳卫南运河", "河流名": "共产主义渠", "站别": "PP", "行政区": 410621.0, "设站年": 0.0, "集水面": null, "站址": "鹤壁市浚县卫贤镇前同山村", "经度": 114.3805, "维度": 35.6164, "测站等": null }, "geometry": { "type": "Point", "coordinates": [ 114.3805, 35.6164 ] } },
{ "type": "Feature", "properties": { "备注": null, "编号": 1.0, "站码": 31024013.0, "站名": "王马湖", "流域名": "海河", "水系名": "漳卫南运河", "河流名": "共产主义渠", "站别": "PP", "行政区": 410621.0, "设站年": 0.0, "集水面": null, "站址": "鹤壁市浚县卫贤镇王马湖村", "经度": 114.3305, "维度": 35.5518, "测站等": null }, "geometry": { "type": "Point", "coordinates": [ 114.3305, 35.5518 ] } },
{ "type": "Feature", "properties": { "备注": null, "编号": 1.0, "站码": 31024014.0, "站名": "任寺南", "流域名": "海河", "水系名": "漳卫南运河", "河流名": "卫河", "站别": "PP", "行政区": 410621.0, "设站年": 0.0, "集水面": null, "站址": "鹤壁市浚县新镇镇任寺南村", "经度": 114.351, "维度": 35.5338, "测站等": null }, "geometry": { "type": "Point", "coordinates": [ 114.351, 35.5338 ] } },
{ "type": "Feature", "properties": { "备注": null, "编号": 1.0, "站码": 31024015.0, "站名": "后岗", "流域名": "海河", "水系名": "漳卫南运河", "河流名": "共产主义渠", "站别": "PP", "行政区": 410621.0, "设站年": 0.0, "集水面": null, "站址": "鹤壁市浚县锯桥镇后岗村", "经度": 114.3703, "维度": 35.7024, "测站等": null }, "geometry": { "type": "Point", "coordinates": [ 114.3703, 35.7024 ] } },
{ "type": "Feature", "properties": { "备注": null, "编号": 1.0, "站码": 31024016.0, "站名": "郭庄", "流域名": "海河", "水系名": "漳卫南运河", "河流名": "民丰沟", "站别": "PP", "行政区": 410621.0, "设站年": 0.0, "集水面": null, "站址": "鹤壁市浚县城关镇郭庄", "经度": 114.5069, "维度": 35.6235, "测站等": null }, "geometry": { "type": "Point", "coordinates": [ 114.5069, 35.6235 ] } },
{ "type": "Feature", "properties": { "备注": null, "编号": 1.0, "站码": 31024017.0, "站名": "浚县", "流域名": "海河", "水系名": "漳卫南运河", "河流名": "卫河", "站别": "PP", "行政区": 410621.0, "设站年": 0.0, "集水面": null, "站址": "鹤壁市浚县城关镇", "经度": 114.542276, "维度": 35.66473, "测站等": null }, "geometry": { "type": "Point", "coordinates": [ 114.542276, 35.66473 ] } },
{ "type": "Feature", "properties": { "备注": null, "编号": 1.0, "站码": 31024018.0, "站名": "小榆柳", "流域名": "海河", "水系名": "漳卫南运河", "河流名": "卫河", "站别": "PP", "行政区": 410621.0, "设站年": 0.0, "集水面": null, "站址": "鹤壁市浚县屯子镇小榆柳村", "经度": 114.5028, "维度": 35.7137, "测站等": null }, "geometry": { "type": "Point", "coordinates": [ 114.5028, 35.7137 ] } },
{ "type": "Feature", "properties": { "备注": null, "编号": 1.0, "站码": 31024019.0, "站名": "锯桥镇", "流域名": "黄河", "水系名": "黄河", "河流名": "柳青一支", "站别": "PP", "行政区": 410621.0, "设站年": 0.0, "集水面": null, "站址": "鹤壁市浚县锯桥镇", "经度": 114.3081, "维度": 35.36986, "测站等": null }, "geometry": { "type": "Point", "coordinates": [ 114.3081, 35.36986 ] } },
{ "type": "Feature", "properties": { "备注": null, "编号": 2.0, "站码": 31024050.0, "站名": "五陵", "流域名": null, "水系名": null, "河流名": null, "站别": null, "行政区": 0.0, "设站年": 0.0, "集水面": null, "站址": "安阳市汤阴县五陵镇五陵村", "经度": 114.588055, "维度": 35.845, "测站等": null }, "geometry": { "type": "Point", "coordinates": [ 114.588055, 35.845 ] } },
{ "type": "Feature", "properties": { "备注": null, "编号": 1.0, "站码": 31024051.0, "站名": "大堤口", "流域名": "海河", "水系名": "漳卫南运河", "河流名": "硝河", "站别": "PP", "行政区": 410527.0, "设站年": 0.0, "集水面": null, "站址": "安阳市内黄县后河镇大堤口村", "经度": 114.8526, "维度": 35.8673, "测站等": null }, "geometry": { "type": "Point", "coordinates": [ 114.8526, 35.8673 ] } },
{ "type": "Feature", "properties": { "备注": null, "编号": 1.0, "站码": 31024052.0, "站名": "碾头", "流域名": "海河", "水系名": "漳卫南运河", "河流名": "志节沟", "站别": "PP", "行政区": 410527.0, "设站年": 0.0, "集水面": null, "站址": "安阳市内黄县碾头村", "经度": 114.9366, "维度": 35.8968, "测站等": null }, "geometry": { "type": "Point", "coordinates": [ 114.9366, 35.8968 ] } },
{ "type": "Feature", "properties": { "备注": null, "编号": 1.0, "站码": 31024053.0, "站名": "林子", "流域名": "海河", "水系名": "漳卫南运河", "河流名": "杏园沟", "站别": "PP", "行政区": 410527.0, "设站年": 0.0, "集水面": null, "站址": "安阳市内黄县张龙乡林子村", "经度": 114.8608, "维度": 36.0074, "测站等": null }, "geometry": { "type": "Point", "coordinates": [ 114.8608, 36.0074 ] } },
{ "type": "Feature", "properties": { "备注": null, "编号": 1.0, "站码": 31024054.0, "站名": "东四牌", "流域名": "海河", "水系名": "漳卫南运河", "河流名": "硝河", "站别": "PP", "行政区": 410527.0, "设站年": 0.0, "集水面": null, "站址": "安阳市内黄县马上乡东四牌村", "经度": 114.928, "维度": 36.0178, "测站等": null }, "geometry": { "type": "Point", "coordinates": [ 114.928, 36.0178 ] } },
{ "type": "Feature", "properties": { "备注": null, "编号": 1.0, "站码": 31024100.0, "站名": "迎阳铺", "流域名": "海河", "水系名": "漳卫南运河", "河流名": "卫河", "站别": "PP", "行政区": 410621.0, "设站年": 0.0, "集水面": null, "站址": "鹤壁市浚县善堂镇迎阳铺", "经度": 114.617, "维度": 35.71954, "测站等": null }, "geometry": { "type": "Point", "coordinates": [ 114.617, 35.71954 ] } },
{ "type": "Feature", "properties": { "备注": null, "编号": 1.0, "站码": 31024150.0, "站名": "鹤壁", "流域名": "海河", "水系名": "漳卫南运河", "河流名": "汤河", "站别": "PP", "行政区": 410603.0, "设站年": 0.0, "集水面": null, "站址": "鹤壁市山城区鹿楼乡小庄村", "经度": 114.18558, "维度": 35.88559, "测站等": null }, "geometry": { "type": "Point", "coordinates": [ 114.18558, 35.88559 ] } },
{ "type": "Feature", "properties": { "备注": null, "编号": 2.0, "站码": 31024200.0, "站名": "小河子", "流域名": null, "水系名": null, "河流名": null, "站别": null, "行政区": 0.0, "设站年": 0.0, "集水面": null, "站址": "河南省汤阴县韩庄乡小河子村", "经度": 114.17, "维度": 35.55, "测站等": null }, "geometry": { "type": "Point", "coordinates": [ 114.17, 35.55 ] } },
{ "type": "Feature", "properties": { "备注": null, "编号": 1.0, "站码": 31024250.0, "站名": "申屯", "流域名": "海河", "水系名": "漳卫南运河", "河流名": "永通河", "站别": "PP", "行政区": 410611.0, "设站年": 0.0, "集水面": null, "站址": "鹤壁市淇滨区大赉店镇申屯村", "经度": 114.33292, "维度": 35.77022, "测站等": null }, "geometry": { "type": "Point", "coordinates": [ 114.33292, 35.77022 ] } },
{ "type": "Feature", "properties": { "备注": null, "编号": 1.0, "站码": 31024251.0, "站名": "姬屯", "流域名": "海河", "水系名": "漳卫南运河", "河流名": "永通河", "站别": "PP", "行政区": 410621.0, "设站年": 0.0, "集水面": null, "站址": "鹤壁市浚县锯桥镇姬屯村", "经度": 114.3347, "维度": 35.7995, "测站等": null }, "geometry": { "type": "Point", "coordinates": [ 114.3347, 35.7995 ] } },
{ "type": "Feature", "properties": { "备注": null, "编号": 1.0, "站码": 31024252.0, "站名": "大黄庄", "流域名": "海河", "水系名": "漳卫南运河", "河流名": "共产主义渠", "站别": "PP", "行政区": 410621.0, "设站年": 0.0, "集水面": null, "站址": "鹤壁市浚县锯桥镇大黄庄村", "经度": 114.4074, "维度": 35.789, "测站等": null }, "geometry": { "type": "Point", "coordinates": [ 114.4074, 35.789 ] } },
{ "type": "Feature", "properties": { "备注": null, "编号": 1.0, "站码": 31024253.0, "站名": "余营", "流域名": "海河", "水系名": "漳卫南运河", "河流名": "共产主义渠", "站别": "PP", "行政区": 410621.0, "设站年": 0.0, "集水面": null, "站址": "鹤壁市浚县屯子镇余营村", "经度": 114.488, "维度": 35.8069, "测站等": null }, "geometry": { "type": "Point", "coordinates": [ 114.488, 35.8069 ] } },
{ "type": "Feature", "properties": { "备注": null, "编号": 1.0, "站码": 31024254.0, "站名": "军寨", "流域名": "海河", "水系名": "漳卫南运河", "河流名": "共产主义渠", "站别": "PP", "行政区": 410621.0, "设站年": 0.0, "集水面": null, "站址": "鹤壁市浚县屯子镇军寨村", "经度": 114.5389, "维度": 35.749, "测站等": null }, "geometry": { "type": "Point", "coordinates": [ 114.5389, 35.749 ] } },
{ "type": "Feature", "properties": { "备注": null, "编号": 1.0, "站码": 31024300.0, "站名": "大性", "流域名": "海河", "水系名": "漳卫南运河", "河流名": "永通河", "站别": "PP", "行政区": 410522.0, "设站年": 0.0, "集水面": null, "站址": "安阳市汤阴县伏道乡伏道二街", "经度": 114.41698, "维度": 35.88692, "测站等": null }, "geometry": { "type": "Point", "coordinates": [ 114.41698, 35.88692 ] } },
{ "type": "Feature", "properties": { "备注": null, "编号": 1.0, "站码": 31024301.0, "站名": "大江窑", "流域名": "海河", "水系名": "漳卫南运河", "河流名": "卫河", "站别": "PP", "行政区": 410523.0, "设站年": 201204.0, "集水面": null, "站址": "安阳市汤阴县瓦岗镇大江窑", "经度": 114.4605, "维度": 35.83568, "测站等": null }, "geometry": { "type": "Point", "coordinates": [ 114.4605, 35.83568 ] } },
{ "type": "Feature", "properties": { "备注": null, "编号": 1.0, "站码": 31024302.0, "站名": "伏道二街", "流域名": "海河", "水系名": "漳卫南运河", "河流名": "永通河", "站别": "PP", "行政区": 410523.0, "设站年": 201204.0, "集水面": null, "站址": "安阳市汤阴县伏道乡伏道二街", "经度": 114.42261, "维度": 35.88084, "测站等": null }, "geometry": { "type": "Point", "coordinates": [ 114.42261, 35.88084 ] } },
{ "type": "Feature", "properties": { "备注": null, "编号": 1.0, "站码": 31024303.0, "站名": "吴指挥营", "流域名": "海河", "水系名": "漳卫南运河", "河流名": "汤河", "站别": "PP", "行政区": 410523.0, "设站年": 201204.0, "集水面": null, "站址": "安阳市汤阴县宜沟镇吴指挥营", "经度": 114.28016, "维度": 35.87992, "测站等": null }, "geometry": { "type": "Point", "coordinates": [ 114.28016, 35.87992 ] } },
{ "type": "Feature", "properties": { "备注": null, "编号": 1.0, "站码": 31024310.0, "站名": "青龙峡", "流域名": "海河", "水系名": "漳卫南运河", "河流名": "山门河", "站别": "PP", "行政区": 410821.0, "设站年": 200807.0, "集水面": null, "站址": "焦作市修武县西村乡", "经度": 113.191944, "维度": 35.375555, "测站等": null }, "geometry": { "type": "Point", "coordinates": [ 113.191944, 35.375555 ] } },
{ "type": "Feature", "properties": { "备注": null, "编号": 1.0, "站码": 31024320.0, "站名": "葡萄峪", "流域名": "海河", "水系名": "漳卫南运河", "河流名": "山门河", "站别": "PP", "行政区": 410821.0, "设站年": 2008.0, "集水面": null, "站址": "焦作市修武县西村乡葡萄峪", "经度": 113.2886, "维度": 35.3736, "测站等": null }, "geometry": { "type": "Point", "coordinates": [ 113.2886, 35.3736 ] } },
{ "type": "Feature", "properties": { "备注": null, "编号": 1.0, "站码": 31024350.0, "站名": "高汉", "流域名": "海河", "水系名": "漳卫南运河", "河流名": "汤河", "站别": "PP", "行政区": 410524.0, "设站年": 0.0, "集水面": null, "站址": "安阳市汤阴县菜园镇后高汉西村", "经度": 114.50127, "维度": 35.94315, "测站等": null }, "geometry": { "type": "Point", "coordinates": [ 114.50127, 35.94315 ] } },
{ "type": "Feature", "properties": { "备注": null, "编号": 1.0, "站码": 31024351.0, "站名": "北张贾", "流域名": "海河", "水系名": "漳卫南运河", "河流名": "汤河", "站别": "PP", "行政区": 410523.0, "设站年": 201204.0, "集水面": null, "站址": "安阳市汤阴县韩庄乡北张贾", "经度": 114.31388, "维度": 35.94406, "测站等": null }, "geometry": { "type": "Point", "coordinates": [ 114.31388, 35.94406 ] } },
{ "type": "Feature", "properties": { "备注": null, "编号": 1.0, "站码": 31024352.0, "站名": "西关", "流域名": "海河", "水系名": "漳卫南运河", "河流名": "汤河", "站别": "PP", "行政区": 410523.0, "设站年": 201204.0, "集水面": null, "站址": "安阳市汤阴县城关镇西关", "经度": 114.33903, "维度": 35.91991, "测站等": null }, "geometry": { "type": "Point", "coordinates": [ 114.33903, 35.91991 ] } },
{ "type": "Feature", "properties": { "备注": null, "编号": 1.0, "站码": 31024353.0, "站名": "枣园", "流域名": "海河", "水系名": "漳卫南运河", "河流名": "汤河", "站别": "PP", "行政区": 410523.0, "设站年": 201204.0, "集水面": null, "站址": "安阳市汤阴县古贤乡枣园", "经度": 114.46477, "维度": 35.96566, "测站等": null }, "geometry": { "type": "Point", "coordinates": [ 114.46477, 35.96566 ] } },
{ "type": "Feature", "properties": { "备注": null, "编号": 1.0, "站码": 31024354.0, "站名": "胜利街", "流域名": "海河", "水系名": "漳卫南运河", "河流名": "永通河", "站别": "PP", "行政区": 410523.0, "设站年": 201204.0, "集水面": null, "站址": "安阳市汤阴县宜沟镇胜利街", "经度": 114.31802, "维度": 35.82401, "测站等": null }, "geometry": { "type": "Point", "coordinates": [ 114.31802, 35.82401 ] } },
{ "type": "Feature", "properties": { "备注": null, "编号": 1.0, "站码": 31024355.0, "站名": "任固六街", "流域名": "海河", "水系名": "漳卫南运河", "河流名": "卫河", "站别": "PP", "行政区": 410523.0, "设站年": 201204.0, "集水面": null, "站址": "安阳市汤阴县任固镇任固六街", "经度": 114.64222, "维度": 35.96419, "测站等": null }, "geometry": { "type": "Point", "coordinates": [ 114.64222, 35.96419 ] } },
{ "type": "Feature", "properties": { "备注": null, "编号": 1.0, "站码": 31024356.0, "站名": "报马厂", "流域名": "海河", "水系名": "漳卫南运河", "河流名": "汤河", "站别": "PP", "行政区": 410523.0, "设站年": 201204.0, "集水面": null, "站址": "安阳市汤阴县菜园镇报马厂", "经度": 114.54067, "维度": 35.92313, "测站等": null }, "geometry": { "type": "Point", "coordinates": [ 114.54067, 35.92313 ] } },
{ "type": "Feature", "properties": { "备注": null, "编号": 1.0, "站码": 31024357.0, "站名": "东柳圈", "流域名": "海河", "水系名": "漳卫南运河", "河流名": "汤河", "站别": "PP", "行政区": 410522.0, "设站年": 0.0, "集水面": null, "站址": "安阳市安阳县瓦岗乡东柳圈村", "经度": 114.5388, "维度": 35.8771, "测站等": null }, "geometry": { "type": "Point", "coordinates": [ 114.5388, 35.8771 ] } },
{ "type": "Feature", "properties": { "备注": null, "编号": 1.0, "站码": 31024358.0, "站名": "葛庄", "流域名": "海河", "水系名": "漳卫南运河", "河流名": "汤河", "站别": "PP", "行政区": 410523.0, "设站年": 0.0, "集水面": null, "站址": "安阳市汤阴县菜园镇葛庄村", "经度": 114.5583, "维度": 35.9775, "测站等": null }, "geometry": { "type": "Point", "coordinates": [ 114.5583, 35.9775 ] } },
{ "type": "Feature", "properties": { "备注": null, "编号": 1.0, "站码": 31024359.0, "站名": "赵庄", "流域名": "海河", "水系名": "漳卫南运河", "河流名": "赵王沟", "站别": "PP", "行政区": 410523.0, "设站年": 0.0, "集水面": null, "站址": "安阳市汤阴县任固镇赵庄村", "经度": 114.6276, "维度": 35.9234, "测站等": null }, "geometry": { "type": "Point", "coordinates": [ 114.6276, 35.9234 ] } },
{ "type": "Feature", "properties": { "备注": null, "编号": 1.0, "站码": 31024400.0, "站名": "马投涧", "流域名": "海河", "水系名": "漳卫南运河", "河流名": "羑河", "站别": "PP", "行政区": 410522.0, "设站年": 0.0, "集水面": null, "站址": "安阳市龙安区马投涧乡马投涧", "经度": 114.25102, "维度": 36.00806, "测站等": null }, "geometry": { "type": "Point", "coordinates": [ 114.25102, 36.00806 ] } },
{ "type": "Feature", "properties": { "备注": null, "编号": 1.0, "站码": 31024401.0, "站名": "高白塔", "流域名": "海河", "水系名": "漳卫南运河", "河流名": "羑河", "站别": "PP", "行政区": 410522.0, "设站年": 201204.0, "集水面": null, "站址": "安阳市龙安区马投涧乡高白塔", "经度": 114.24873, "维度": 35.98717, "测站等": null }, "geometry": { "type": "Point", "coordinates": [ 114.24873, 35.98717 ] } },
{ "type": "Feature", "properties": { "备注": null, "编号": 1.0, "站码": 31024410.0, "站名": "二十里铺", "流域名": "海河", "水系名": "漳卫南运河", "河流名": "洪水河", "站别": "PP", "行政区": 410522.0, "设站年": 0.0, "集水面": null, "站址": "安阳市龙安区田村办事处南田村", "经度": 114.3385, "维度": 35.9699, "测站等": null }, "geometry": { "type": "Point", "coordinates": [ 114.3385, 35.9699 ] } },
{ "type": "Feature", "properties": { "备注": null, "编号": 1.0, "站码": 31024411.0, "站名": "何官屯", "流域名": "海河", "水系名": "漳卫南运河", "河流名": "洪水河", "站别": "PP", "行政区": 410522.0, "设站年": 201204.0, "集水面": null, "站址": "安阳市文峰区宝莲寺镇何官屯", "经度": 114.38014, "维度": 35.98838, "测站等": null }, "geometry": { "type": "Point", "coordinates": [ 114.38014, 35.98838 ] } },
{ "type": "Feature", "properties": { "备注": null, "编号": 1.0, "站码": 31024500.0, "站名": "姚村", "流域名": "海河", "水系名": "漳卫南运河", "河流名": "安阳河", "站别": "PP", "行政区": 410522.0, "设站年": 0.0, "集水面": null, "站址": "安阳市林州市姚村镇史家河", "经度": 113.80444, "维度": 36.16167, "测站等": null }, "geometry": { "type": "Point", "coordinates": [ 113.80444, 36.16167 ] } },
{ "type": "Feature", "properties": { "备注": null, "编号": 1.0, "站码": 31024501.0, "站名": "栗家沟", "流域名": "海河", "水系名": "漳卫南运河", "河流名": "安阳河", "站别": "PP", "行政区": 410581.0, "设站年": 201204.0, "集水面": null, "站址": "安阳市林州市河顺镇栗家沟", "经度": 113.88755, "维度": 36.17532, "测站等": null }, "geometry": { "type": "Point", "coordinates": [ 113.88755, 36.17532 ] } },
{ "type": "Feature", "properties": { "备注": null, "编号": 1.0, "站码": 31024502.0, "站名": "北杨", "流域名": "海河", "水系名": "漳卫南运河", "河流名": "安阳河", "站别": "PP", "行政区": 410581.0, "设站年": 201204.0, "集水面": null, "站址": "安阳市林州市姚村镇北杨", "经度": 113.79861, "维度": 36.21, "测站等": null }, "geometry": { "type": "Point", "coordinates": [ 113.79861, 36.21 ] } },
{ "type": "Feature", "properties": { "备注": null, "编号": 1.0, "站码": 31024550.0, "站名": "石楼", "流域名": "海河", "水系名": "漳卫南运河", "河流名": "安阳河", "站别": "PP", "行政区": 410581.0, "设站年": 0.0, "集水面": null, "站址": "安阳市林州市城郊乡田家沟村红旗渠管所", "经度": 113.759, "维度": 36.1381, "测站等": null }, "geometry": { "type": "Point", "coordinates": [ 113.759, 36.1381 ] } },
{ "type": "Feature", "properties": { "备注": null, "编号": 1.0, "站码": 31024551.0, "站名": "黄华", "流域名": "海河", "水系名": "漳卫南运河", "河流名": "安阳河", "站别": "PP", "行政区": 410581.0, "设站年": 201204.0, "集水面": null, "站址": "安阳市林州市城郊乡黄华", "经度": 113.74113, "维度": 36.08876, "测站等": null }, "geometry": { "type": "Point", "coordinates": [ 113.74113, 36.08876 ] } },
{ "type": "Feature", "properties": { "备注": null, "编号": 1.0, "站码": 31024552.0, "站名": "桃园", "流域名": "海河", "水系名": "漳卫南运河", "河流名": "安阳河", "站别": "PP", "行政区": 410581.0, "设站年": 201204.0, "集水面": null, "站址": "安阳市林州市城郊乡桃园", "经度": 113.73221, "维度": 36.05223, "测站等": null }, "geometry": { "type": "Point", "coordinates": [ 113.73221, 36.05223 ] } },